{
"type": "FeatureCollection",
"name": "Bhopal_resources",
"crs": { "type": "name", "properties": { "name": "urn:ogc:def:crs:OGC:1.3:CRS84" } },
"features": [
{ "type": "Feature", "properties": { "element": "node", "id": 2362022098, "name": "Excellence school", "amenity": "school", "water": null, "natural": null }, "geometry": { "type": "Point", "coordinates": [ 77.4310245, 23.2233689 ] } },
{ "type": "Feature", "properties": { "element": "node", "id": 2651560704, "name": "Manisha Hospital", "amenity": "hospital", "water": null, "natural": null }, "geometry": { "type": "Point", "coordinates": [ 77.3921666, 23.213357 ] } },
{ "type": "Feature", "properties": { "element": "node", "id": 2651567364, "name": "Kopal Higher Secondary School", "amenity": "school", "water": null, "natural": null }, "geometry": { "type": "Point", "coordinates": [ 77.3943978, 23.2116678 ] } },
{ "type": "Feature", "properties": { "element": "node", "id": 3691395875, "name": null, "amenity": "college", "water": null, "natural": null }, "geometry": { "type": "Point", "coordinates": [ 77.4294248, 23.2242501 ] } },
{ "type": "Feature", "properties": { "element": "node", "id": 4781105050, "name": "Mansarovar Public School", "amenity": "school", "water": null, "natural": null }, "geometry": { "type": "Point", "coordinates": [ 77.4184921, 23.1817615 ] } },
{ "type": "Feature", "properties": { "element": "node", "id": 4781120241, "name": "Jawaharlal Nehru Public School", "amenity": "school", "water": null, "natural": null }, "geometry": { "type": "Point", "coordinates": [ 77.4184652, 23.1838795 ] } },
{ "type": "Feature", "properties": { "element": "node", "id": 4781133915, "name": "Kidzee Primary School", "amenity": "school", "water": null, "natural": null }, "geometry": { "type": "Point", "coordinates": [ 77.4180264, 23.1872906 ] } },
{ "type": "Feature", "properties": { "element": "node", "id": 4781134061, "name": "Anupam Hospital", "amenity": "hospital", "water": null, "natural": null }, "geometry": { "type": "Point", "coordinates": [ 77.4170971, 23.1724664 ] } },
{ "type": "Feature", "properties": { "element": "node", "id": 4781149818, "name": "Kempfort School", "amenity": "school", "water": null, "natural": null }, "geometry": { "type": "Point", "coordinates": [ 77.4126982, 23.1715091 ] } },
{ "type": "Feature", "properties": { "element": "node", "id": 4781153156, "name": "L N Medical College ", "amenity": "college", "water": null, "natural": null }, "geometry": { "type": "Point", "coordinates": [ 77.4278901, 23.1775944 ] } },
{ "type": "Feature", "properties": { "element": "node", "id": 4781154622, "name": "Orion International School ", "amenity": "school", "water": null, "natural": null }, "geometry": { "type": "Point", "coordinates": [ 77.4333795, 23.1778584 ] } },
{ "type": "Feature", "properties": { "element": "node", "id": 4781158396, "name": "Extol College ", "amenity": "college", "water": null, "natural": null }, "geometry": { "type": "Point", "coordinates": [ 77.4342423, 23.1782242 ] } },
{ "type": "Feature", "properties": { "element": "node", "id": 4781169437, "name": "World Way School", "amenity": "school", "water": null, "natural": null }, "geometry": { "type": "Point", "coordinates": [ 77.436901, 23.1684361 ] } },
{ "type": "Feature", "properties": { "element": "node", "id": 4781180447, "name": "Bisoniya Hospital ", "amenity": "hospital", "water": null, "natural": null }, "geometry": { "type": "Point", "coordinates": [ 77.4363178, 23.1825879 ] } },
{ "type": "Feature", "properties": { "element": "node", "id": 4781230024, "name": "Rajiv Gandhi College", "amenity": "school", "water": null, "natural": null }, "geometry": { "type": "Point", "coordinates": [ 77.432715, 23.1889417 ] } },
{ "type": "Feature", "properties": { "element": "node", "id": 4781230222, "name": "Rajiv Gandhi H S School", "amenity": "school", "water": null, "natural": null }, "geometry": { "type": "Point", "coordinates": [ 77.4333427, 23.1890582 ] } },
{ "type": "Feature", "properties": { "element": "node", "id": 4781230224, "name": "Physiotherapy & Ayurveda", "amenity": "hospital", "water": null, "natural": null }, "geometry": { "type": "Point", "coordinates": [ 77.4319555, 23.1886998 ] } },
{ "type": "Feature", "properties": { "element": "node", "id": 4798854898, "name": "Shekhar Hospital, Bhopal", "amenity": "hospital", "water": null, "natural": null }, "geometry": { "type": "Point", "coordinates": [ 77.4263831, 23.2016302 ] } },
{ "type": "Feature", "properties": { "element": "node", "id": 4798865397, "name": "Life Line Hospital, Bhopal", "amenity": "hospital", "water": null, "natural": null }, "geometry": { "type": "Point", "coordinates": [ 77.4264928, 23.1984715 ] } },
{ "type": "Feature", "properties": { "element": "node", "id": 4798867777, "name": "Lahoti Hospital ", "amenity": "hospital", "water": null, "natural": null }, "geometry": { "type": "Point", "coordinates": [ 77.429428, 23.1998518 ] } },
{ "type": "Feature", "properties": { "element": "node", "id": 4803607717, "name": "Bhopal Fracture Hospital ", "amenity": "hospital", "water": null, "natural": null }, "geometry": { "type": "Point", "coordinates": [ 77.4387892, 23.2126452 ] } },
{ "type": "Feature", "properties": { "element": "node", "id": 4803608808, "name": "Nalanda Public School", "amenity": "school", "water": null, "natural": null }, "geometry": { "type": "Point", "coordinates": [ 77.4376688, 23.2138923 ] } },
{ "type": "Feature", "properties": { "element": "node", "id": 4803609898, "name": "Asha Niketan", "amenity": "hospital", "water": null, "natural": null }, "geometry": { "type": "Point", "coordinates": [ 77.440881, 23.2100099 ] } },
{ "type": "Feature", "properties": { "element": "node", "id": 4803612133, "name": "St Joseph Coed ", "amenity": "school", "water": null, "natural": null }, "geometry": { "type": "Point", "coordinates": [ 77.4391169, 23.209441 ] } },
{ "type": "Feature", "properties": { "element": "node", "id": 4803615012, "name": "Central School", "amenity": "school", "water": null, "natural": null }, "geometry": { "type": "Point", "coordinates": [ 77.4321377, 23.2235619 ] } },
{ "type": "Feature", "properties": { "element": "node", "id": 4807054942, "name": "Extol Institute of Management", "amenity": "college", "water": null, "natural": null }, "geometry": { "type": "Point", "coordinates": [ 77.4148872, 23.2528901 ] } },
{ "type": "Feature", "properties": { "element": "node", "id": 4807059899, "name": "Vardaan Hospital, Bhopal", "amenity": "hospital", "water": null, "natural": null }, "geometry": { "type": "Point", "coordinates": [ 77.4149495, 23.2521256 ] } },
{ "type": "Feature", "properties": { "element": "node", "id": 4807063192, "name": "Rashidia School", "amenity": "school", "water": null, "natural": null }, "geometry": { "type": "Point", "coordinates": [ 77.4155873, 23.2532577 ] } },
{ "type": "Feature", "properties": { "element": "node", "id": 4836536756, "name": "Hind Convent HS", "amenity": "school", "water": null, "natural": null }, "geometry": { "type": "Point", "coordinates": [ 77.4226686, 23.260004 ] } },
{ "type": "Feature", "properties": { "element": "node", "id": 4836540772, "name": "Bhopal Academy School", "amenity": "school", "water": null, "natural": null }, "geometry": { "type": "Point", "coordinates": [ 77.4219714, 23.2624831 ] } },
{ "type": "Feature", "properties": { "element": "node", "id": 4836565823, "name": "Saidia School", "amenity": "school", "water": null, "natural": null }, "geometry": { "type": "Point", "coordinates": [ 77.4079165, 23.2572881 ] } },
{ "type": "Feature", "properties": { "element": "node", "id": 4836567801, "name": "Khan Shakir ali khan aspataal, gas rahat, bhopal", "amenity": "hospital", "water": null, "natural": null }, "geometry": { "type": "Point", "coordinates": [ 77.4104527, 23.2617176 ] } },
{ "type": "Feature", "properties": { "element": "node", "id": 4836589809, "name": "LGM Memorial School", "amenity": "school", "water": null, "natural": null }, "geometry": { "type": "Point", "coordinates": [ 77.4030672, 23.2678292 ] } },
{ "type": "Feature", "properties": { "element": "node", "id": 4836592537, "name": "Bhopal Eye Hospital", "amenity": "hospital", "water": null, "natural": null }, "geometry": { "type": "Point", "coordinates": [ 77.404835, 23.2682768 ] } },
{ "type": "Feature", "properties": { "element": "node", "id": 4890361333, "name": "I E H E", "amenity": "college", "water": null, "natural": null }, "geometry": { "type": "Point", "coordinates": [ 77.4097648, 23.1912003 ] } },
{ "type": "Feature", "properties": { "element": "node", "id": 4890362115, "name": "Jagran Lakecity University ", "amenity": "university", "water": null, "natural": null }, "geometry": { "type": "Point", "coordinates": [ 77.3875459, 23.1754563 ] } },
{ "type": "Feature", "properties": { "element": "node", "id": 4922634744, "name": "Gyan Ganga ", "amenity": "school", "water": null, "natural": null }, "geometry": { "type": "Point", "coordinates": [ 77.4875906, 23.1399851 ] } },
{ "type": "Feature", "properties": { "element": "node", "id": 5291309447, "name": "Adarsh Gyan Pushpa School", "amenity": "school", "water": null, "natural": null }, "geometry": { "type": "Point", "coordinates": [ 77.3567886, 23.2033072 ] } },
{ "type": "Feature", "properties": { "element": "node", "id": 5474530264, "name": "Christ Memorial Higher Secondary School", "amenity": "school", "water": null, "natural": null }, "geometry": { "type": "Point", "coordinates": [ 77.3452194, 23.272526 ] } },
{ "type": "Feature", "properties": { "element": "node", "id": 5474550946, "name": "SVCA English Classes", "amenity": "school", "water": null, "natural": null }, "geometry": { "type": "Point", "coordinates": [ 77.3426374, 23.268765 ] } },
{ "type": "Feature", "properties": { "element": "node", "id": 5474556982, "name": "Government Boys High Secondary Madhyamik Vidyalaya", "amenity": "school", "water": null, "natural": null }, "geometry": { "type": "Point", "coordinates": [ 77.3414435, 23.2703943 ] } },
{ "type": "Feature", "properties": { "element": "node", "id": 5474608085, "name": "Deepmala Pagarani Sanskar Higher Secondary School", "amenity": "school", "water": null, "natural": null }, "geometry": { "type": "Point", "coordinates": [ 77.3436878, 23.26701 ] } },
{ "type": "Feature", "properties": { "element": "node", "id": 5474633342, "name": "MITHI GOBINDRAM PUBLIC SCHOOL (RG)", "amenity": "school", "water": null, "natural": null }, "geometry": { "type": "Point", "coordinates": [ 77.343426, 23.2678297 ] } },
{ "type": "Feature", "properties": { "element": "node", "id": 5474633343, "name": "Vidhya Sagar School", "amenity": "school", "water": null, "natural": null }, "geometry": { "type": "Point", "coordinates": [ 77.3426272, 23.2677159 ] } },
{ "type": "Feature", "properties": { "element": "node", "id": 5474694560, "name": "Pandit Deen Dayal Upadhyay Girls College", "amenity": "school", "water": null, "natural": null }, "geometry": { "type": "Point", "coordinates": [ 77.3387826, 23.2720777 ] } },
{ "type": "Feature", "properties": { "element": "node", "id": 5479329616, "name": "sheel niketan higher secondary school", "amenity": "school", "water": null, "natural": null }, "geometry": { "type": "Point", "coordinates": [ 77.3327243, 23.271899 ] } },
{ "type": "Feature", "properties": { "element": "node", "id": 5479440655, "name": "Saroj Memorial Convent School", "amenity": "school", "water": null, "natural": null }, "geometry": { "type": "Point", "coordinates": [ 77.3220101, 23.2761923 ] } },
{ "type": "Feature", "properties": { "element": "node", "id": 5479582588, "name": "Sindhu Middle School", "amenity": "school", "water": null, "natural": null }, "geometry": { "type": "Point", "coordinates": [ 77.3365036, 23.2739162 ] } },
{ "type": "Feature", "properties": { "element": "node", "id": 6128494273, "name": "Madhya Pradesh School of Drama", "amenity": "college", "water": null, "natural": null }, "geometry": { "type": "Point", "coordinates": [ 77.3882482, 23.2342111 ] } },
{ "type": "Feature", "properties": { "element": "node", "id": 6128500472, "name": "Aastha Hospital", "amenity": "hospital", "water": null, "natural": null }, "geometry": { "type": "Point", "coordinates": [ 77.3944885, 23.2324175 ] } },
{ "type": "Feature", "properties": { "element": "node", "id": 6562093342, "name": "HAKIM SYED ZIAUL HASAN GOVERMENT UNANI MEDICAL COLLEGE AND HOSPITAL", "amenity": "hospital", "water": null, "natural": null }, "geometry": { "type": "Point", "coordinates": [ 77.4093707, 23.2045252 ] } },
{ "type": "Feature", "properties": { "element": "node", "id": 6562093343, "name": "GOVERMENT HOMEOPATHIC MEDICAL COLLEGE AND HOSPITAL", "amenity": "hospital", "water": null, "natural": null }, "geometry": { "type": "Point", "coordinates": [ 77.4091003, 23.2037556 ] } },
{ "type": "Feature", "properties": { "element": "node", "id": 7013132568, "name": "Meenakshi Hospital, Bhopal", "amenity": "hospital", "water": null, "natural": null }, "geometry": { "type": "Point", "coordinates": [ 77.4299254, 23.2133755 ] } },
{ "type": "Feature", "properties": { "element": "node", "id": 7013166610, "name": "Prakash Eye Care and Laser Centre", "amenity": "hospital", "water": null, "natural": null }, "geometry": { "type": "Point", "coordinates": [ 77.4356157, 23.2288798 ] } },
{ "type": "Feature", "properties": { "element": "node", "id": 7013484307, "name": "Mata Mandir Netra Sewa Kendra", "amenity": "hospital", "water": null, "natural": null }, "geometry": { "type": "Point", "coordinates": [ 77.4019808, 23.2242238 ] } },
{ "type": "Feature", "properties": { "element": "node", "id": 7013484308, "name": "Kshitij Hospital", "amenity": "hospital", "water": null, "natural": null }, "geometry": { "type": "Point", "coordinates": [ 77.3803829, 23.262956 ] } },
{ "type": "Feature", "properties": { "element": "node", "id": 7013484309, "name": "Bhopal Care Hospital", "amenity": "hospital", "water": null, "natural": null }, "geometry": { "type": "Point", "coordinates": [ 77.3939585, 23.2627832 ] } },
{ "type": "Feature", "properties": { "element": "node", "id": 7013590094, "name": "G.S.M.Hospital", "amenity": "hospital", "water": null, "natural": null }, "geometry": { "type": "Point", "coordinates": [ 77.3937517, 23.2301825 ] } },
{ "type": "Feature", "properties": { "element": "node", "id": 7013648893, "name": "Central Hospital and Research Center", "amenity": "hospital", "water": null, "natural": null }, "geometry": { "type": "Point", "coordinates": [ 77.393792, 23.263933 ] } },
{ "type": "Feature", "properties": { "element": "node", "id": 7013698771, "name": "Narmada Advance Trauma and Critical care Institute", "amenity": "hospital", "water": null, "natural": null }, "geometry": { "type": "Point", "coordinates": [ 77.4391609, 23.217648 ] } },
{ "type": "Feature", "properties": { "element": "node", "id": 7013698782, "name": "Pushkom Maternity and Nursing Home, Bhopal", "amenity": "clinic", "water": null, "natural": null }, "geometry": { "type": "Point", "coordinates": [ 77.4309044, 23.2534681 ] } },
{ "type": "Feature", "properties": { "element": "node", "id": 7013700387, "name": "Devmata Hospital", "amenity": "hospital", "water": null, "natural": null }, "geometry": { "type": "Point", "coordinates": [ 77.4731988, 23.2684238 ] } },
{ "type": "Feature", "properties": { "element": "node", "id": 7013704094, "name": "Shri Maya Maternity and General Hospital", "amenity": "hospital", "water": null, "natural": null }, "geometry": { "type": "Point", "coordinates": [ 77.4731706, 23.1945312 ] } },
{ "type": "Feature", "properties": { "element": "node", "id": 7013704107, "name": "Malti Hospital", "amenity": "hospital", "water": null, "natural": null }, "geometry": { "type": "Point", "coordinates": [ 77.4342786, 23.2070006 ] } },
{ "type": "Feature", "properties": { "element": "node", "id": 7013744455, "name": "Jayshree Hospital", "amenity": "hospital", "water": null, "natural": null }, "geometry": { "type": "Point", "coordinates": [ 77.3988064, 23.2528588 ] } },
{ "type": "Feature", "properties": { "element": "node", "id": 7013770350, "name": "Peoples General Hospital", "amenity": "hospital", "water": null, "natural": null }, "geometry": { "type": "Point", "coordinates": [ 77.4055132, 23.2402937 ] } },
{ "type": "Feature", "properties": { "element": "node", "id": 7013804526, "name": "Shubham Hospital Fracture Accident Care", "amenity": "hospital", "water": null, "natural": null }, "geometry": { "type": "Point", "coordinates": [ 77.3939529, 23.2624533 ] } },
{ "type": "Feature", "properties": { "element": "node", "id": 7013804552, "name": "Choudhary Hospital", "amenity": "hospital", "water": null, "natural": null }, "geometry": { "type": "Point", "coordinates": [ 77.4280921, 23.2536634 ] } },
{ "type": "Feature", "properties": { "element": "node", "id": 7013804557, "name": "Citi Hospital", "amenity": "hospital", "water": null, "natural": null }, "geometry": { "type": "Point", "coordinates": [ 77.4360924, 23.2304819 ] } },
{ "type": "Feature", "properties": { "element": "node", "id": 7013804558, "name": "Gour Hospital And Maternity Home", "amenity": "hospital", "water": null, "natural": null }, "geometry": { "type": "Point", "coordinates": [ 77.4043921, 23.2548783 ] } },
{ "type": "Feature", "properties": { "element": "node", "id": 7013804661, "name": "Adarsh Hospital, Bhopal", "amenity": "hospital", "water": null, "natural": null }, "geometry": { "type": "Point", "coordinates": [ 77.3950513, 23.2678041 ] } },
{ "type": "Feature", "properties": { "element": "node", "id": 7013865513, "name": "Nilay Hospital", "amenity": "hospital", "water": null, "natural": null }, "geometry": { "type": "Point", "coordinates": [ 77.4503008, 23.1911005 ] } },
{ "type": "Feature", "properties": { "element": "node", "id": 7013865527, "name": "Parul Hospital Pvt Ltd", "amenity": "hospital", "water": null, "natural": null }, "geometry": { "type": "Point", "coordinates": [ 77.4320886, 23.2274392 ] } },
{ "type": "Feature", "properties": { "element": "node", "id": 7013865542, "name": "Bhopal Fracture Hospital", "amenity": "hospital", "water": null, "natural": null }, "geometry": { "type": "Point", "coordinates": [ 77.4391428, 23.2128356 ] } },
{ "type": "Feature", "properties": { "element": "node", "id": 7013865548, "name": "Shukla Hospital and Maternity Home", "amenity": "hospital", "water": null, "natural": null }, "geometry": { "type": "Point", "coordinates": [ 77.3957902, 23.2198621 ] } },
{ "type": "Feature", "properties": { "element": "node", "id": 7013885330, "name": "Hafeez Maternity Home and Eye Hospital", "amenity": "hospital", "water": null, "natural": null }, "geometry": { "type": "Point", "coordinates": [ 77.413765, 23.2481629 ] } },
{ "type": "Feature", "properties": { "element": "node", "id": 7013885339, "name": "Apex Hospital", "amenity": "hospital", "water": null, "natural": null }, "geometry": { "type": "Point", "coordinates": [ 77.4013451, 23.2698098 ] } },
{ "type": "Feature", "properties": { "element": "node", "id": 7013919332, "name": "Pranjal Hospital and Child Care Center", "amenity": "hospital", "water": null, "natural": null }, "geometry": { "type": "Point", "coordinates": [ 77.4302284, 23.254938 ] } },
{ "type": "Feature", "properties": { "element": "node", "id": 7013923398, "name": "Ajwani Eye Hospital", "amenity": "hospital", "water": null, "natural": null }, "geometry": { "type": "Point", "coordinates": [ 77.4013142, 23.2696891 ] } },
{ "type": "Feature", "properties": { "element": "node", "id": 7013924260, "name": "Anushree Hospital", "amenity": "hospital", "water": null, "natural": null }, "geometry": { "type": "Point", "coordinates": [ 77.4361414, 23.2125817 ] } },
{ "type": "Feature", "properties": { "element": "node", "id": 7013950726, "name": "Nahar Nursing Home, Bhopal", "amenity": "clinic", "water": null, "natural": null }, "geometry": { "type": "Point", "coordinates": [ 77.4018855, 23.2373436 ] } },
{ "type": "Feature", "properties": { "element": "node", "id": 7013971836, "name": "Anantshree Multispeciality Hospital", "amenity": "hospital", "water": null, "natural": null }, "geometry": { "type": "Point", "coordinates": [ 77.459553, 23.2512606 ] } },
{ "type": "Feature", "properties": { "element": "node", "id": 7014129664, "name": "Venus Hospital and Medical Research Centre-Bhopal", "amenity": "hospital", "water": null, "natural": null }, "geometry": { "type": "Point", "coordinates": [ 77.403806, 23.2993465 ] } },
{ "type": "Feature", "properties": { "element": "node", "id": 7014129665, "name": "Aradhana Maternity And Kidney Hospital", "amenity": "hospital", "water": null, "natural": null }, "geometry": { "type": "Point", "coordinates": [ 77.4717195, 23.250594 ] } },
{ "type": "Feature", "properties": { "element": "node", "id": 7014244270, "name": "L.B.S Hospital", "amenity": "hospital", "water": null, "natural": null }, "geometry": { "type": "Point", "coordinates": [ 77.3937383, 23.2649458 ] } },
{ "type": "Feature", "properties": { "element": "node", "id": 7014244271, "name": "Chirayu Medical College and Hospital", "amenity": "hospital", "water": null, "natural": null }, "geometry": { "type": "Point", "coordinates": [ 77.3081296, 23.2688064 ] } },
{ "type": "Feature", "properties": { "element": "node", "id": 7014266231, "name": "Yashoda Hospital, Bhopal", "amenity": "hospital", "water": null, "natural": null }, "geometry": { "type": "Point", "coordinates": [ 77.3936498, 23.2652057 ] } },
{ "type": "Feature", "properties": { "element": "node", "id": 7014694821, "name": "Krishna Hospital, Bhopal", "amenity": "hospital", "water": null, "natural": null }, "geometry": { "type": "Point", "coordinates": [ 77.4155004, 23.2523431 ] } },
{ "type": "Feature", "properties": { "element": "node", "id": 7014694829, "name": "Faith and Hope Hospital", "amenity": "hospital", "water": null, "natural": null }, "geometry": { "type": "Point", "coordinates": [ 77.4025494, 23.2343749 ] } },
{ "type": "Feature", "properties": { "element": "node", "id": 7014942436, "name": "Jashdeep Hospital", "amenity": "hospital", "water": null, "natural": null }, "geometry": { "type": "Point", "coordinates": [ 77.3961577, 23.2338401 ] } },
{ "type": "Feature", "properties": { "element": "node", "id": 7014942437, "name": "Naman Hospital", "amenity": "hospital", "water": null, "natural": null }, "geometry": { "type": "Point", "coordinates": [ 77.433726, 23.1927209 ] } },
{ "type": "Feature", "properties": { "element": "node", "id": 7015238384, "name": "Nav Jeevan Hospital, Bhopal", "amenity": "hospital", "water": null, "natural": null }, "geometry": { "type": "Point", "coordinates": [ 77.4704428, 23.1948024 ] } },
{ "type": "Feature", "properties": { "element": "node", "id": 7015262894, "name": "Niramaya Hospital, Bhopal", "amenity": "hospital", "water": null, "natural": null }, "geometry": { "type": "Point", "coordinates": [ 77.432908, 23.2112407 ] } },
{ "type": "Feature", "properties": { "element": "node", "id": 7015262907, "name": "Ntr Hospital and Research Centre", "amenity": "hospital", "water": null, "natural": null }, "geometry": { "type": "Point", "coordinates": [ 77.4056527, 23.2597415 ] } },
{ "type": "Feature", "properties": { "element": "node", "id": 7015296487, "name": "Agrawal Hospital", "amenity": "hospital", "water": null, "natural": null }, "geometry": { "type": "Point", "coordinates": [ 77.4393775, 23.2156753 ] } },
{ "type": "Feature", "properties": { "element": "node", "id": 7015296488, "name": "Bhopal Memorial Hospital and Research Center", "amenity": "hospital", "water": null, "natural": null }, "geometry": { "type": "Point", "coordinates": [ 77.4166846, 23.3003492 ] } },
{ "type": "Feature", "properties": { "element": "node", "id": 7015296499, "name": "Noble Multispeciality Hospital", "amenity": "hospital", "water": null, "natural": null }, "geometry": { "type": "Point", "coordinates": [ 77.4705541, 23.1614005 ] } },
{ "type": "Feature", "properties": { "element": "node", "id": 7015548062, "name": "Navodaya Hospital And Research Centre", "amenity": "hospital", "water": null, "natural": null }, "geometry": { "type": "Point", "coordinates": [ 77.436824, 23.230265 ] } },
{ "type": "Feature", "properties": { "element": "node", "id": 7015810930, "name": "Akshaya Hospital", "amenity": "hospital", "water": null, "natural": null }, "geometry": { "type": "Point", "coordinates": [ 77.4236557, 23.2174908 ] } },
{ "type": "Feature", "properties": { "element": "node", "id": 7015810938, "name": "Paliwal Hospital Pvt. Ltd.", "amenity": "hospital", "water": null, "natural": null }, "geometry": { "type": "Point", "coordinates": [ 77.4440525, 23.2303599 ] } },
{ "type": "Feature", "properties": { "element": "node", "id": 7015810948, "name": "Rajdeep Hospital", "amenity": "hospital", "water": null, "natural": null }, "geometry": { "type": "Point", "coordinates": [ 77.3424774, 23.2720029 ] } },
{ "type": "Feature", "properties": { "element": "node", "id": 7015810949, "name": "Sanjeevani Hospital, Bhopal", "amenity": "hospital", "water": null, "natural": null }, "geometry": { "type": "Point", "coordinates": [ 77.3937863, 23.2641502 ] } },
{ "type": "Feature", "properties": { "element": "node", "id": 7015816092, "name": "Sahara Fracture and General Hospital", "amenity": "hospital", "water": null, "natural": null }, "geometry": { "type": "Point", "coordinates": [ 77.4483964, 23.1956985 ] } },
{ "type": "Feature", "properties": { "element": "node", "id": 7015954635, "name": "Peoples Hospital", "amenity": "hospital", "water": null, "natural": null }, "geometry": { "type": "Point", "coordinates": [ 77.4251068, 23.2988834 ] } },
{ "type": "Feature", "properties": { "element": "node", "id": 7015971605, "name": "Sujyoti Hospital and Maternity Home", "amenity": "hospital", "water": null, "natural": null }, "geometry": { "type": "Point", "coordinates": [ 77.4365044, 23.1916178 ] } },
{ "type": "Feature", "properties": { "element": "node", "id": 7016102821, "name": "Dewani Hospital And Research Centre", "amenity": "hospital", "water": null, "natural": null }, "geometry": { "type": "Point", "coordinates": [ 77.4315892, 23.210445 ] } },
{ "type": "Feature", "properties": { "element": "node", "id": 7016102833, "name": "Pushpanjali Hsopital", "amenity": "hospital", "water": null, "natural": null }, "geometry": { "type": "Point", "coordinates": [ 77.4344569, 23.2014132 ] } },
{ "type": "Feature", "properties": { "element": "node", "id": 7016102834, "name": "Suyash Mother and Child Hospital", "amenity": "hospital", "water": null, "natural": null }, "geometry": { "type": "Point", "coordinates": [ 77.4180633, 23.2083848 ] } },
{ "type": "Feature", "properties": { "element": "node", "id": 7016104858, "name": "Global Liver and Gastroenterology Centre", "amenity": "hospital", "water": null, "natural": null }, "geometry": { "type": "Point", "coordinates": [ 77.429118, 23.2140521 ] } },
{ "type": "Feature", "properties": { "element": "node", "id": 7016150778, "name": "Asha Niketan Hospital", "amenity": "hospital", "water": null, "natural": null }, "geometry": { "type": "Point", "coordinates": [ 77.4396715, 23.2102929 ] } },
{ "type": "Feature", "properties": { "element": "node", "id": 7016150779, "name": "National Hospital For Heart and Critical Care", "amenity": "hospital", "water": null, "natural": null }, "geometry": { "type": "Point", "coordinates": [ 77.4360666, 23.2169754 ] } },
{ "type": "Feature", "properties": { "element": "node", "id": 7016150780, "name": "Ajwani Eye Tech Centre", "amenity": "hospital", "water": null, "natural": null }, "geometry": { "type": "Point", "coordinates": [ 77.4274743, 23.2137751 ] } },
{ "type": "Feature", "properties": { "element": "node", "id": 7016168278, "name": "Charak Hospital/A Unit Of Mrityunjay Health Care Pvt Ltd,", "amenity": "hospital", "water": null, "natural": null }, "geometry": { "type": "Point", "coordinates": [ 77.4151021, 23.251491 ] } },
{ "type": "Feature", "properties": { "element": "node", "id": 7016168371, "name": "New Bhopal Hospital and Research Foundation", "amenity": "hospital", "water": null, "natural": null }, "geometry": { "type": "Point", "coordinates": [ 77.4364391, 23.2283782 ] } },
{ "type": "Feature", "properties": { "element": "node", "id": 7016172592, "name": "Sharda Hospital and Diagnostic Center", "amenity": "hospital", "water": null, "natural": null }, "geometry": { "type": "Point", "coordinates": [ 77.3959123, 23.221521 ] } },
{ "type": "Feature", "properties": { "element": "node", "id": 7016217250, "name": "Saarthi Hospital (Maternity and Urological Centre)", "amenity": "hospital", "water": null, "natural": null }, "geometry": { "type": "Point", "coordinates": [ 77.4457088, 23.2029589 ] } },
{ "type": "Feature", "properties": { "element": "node", "id": 7016243059, "name": "Tanushree Female Hospital", "amenity": "hospital", "water": null, "natural": null }, "geometry": { "type": "Point", "coordinates": [ 77.4167892, 23.2516574 ] } },
{ "type": "Feature", "properties": { "element": "node", "id": 7016405057, "name": "Shivam Hospital, Bhopal", "amenity": "hospital", "water": null, "natural": null }, "geometry": { "type": "Point", "coordinates": [ 77.441023, 23.2353103 ] } },
{ "type": "Feature", "properties": { "element": "node", "id": 7016451736, "name": "Sankalp Netralya Hospital", "amenity": "hospital", "water": null, "natural": null }, "geometry": { "type": "Point", "coordinates": [ 77.4364857, 23.2302816 ] } },
{ "type": "Feature", "properties": { "element": "node", "id": 7016451737, "name": "Vatsalya Hospital, Bhopal", "amenity": "hospital", "water": null, "natural": null }, "geometry": { "type": "Point", "coordinates": [ 77.4400197, 23.2339407 ] } },
{ "type": "Feature", "properties": { "element": "node", "id": 7016451742, "name": "Lakecity Hospital, Bhopal", "amenity": "hospital", "water": null, "natural": null }, "geometry": { "type": "Point", "coordinates": [ 77.4405538, 23.2321079 ] } },
{ "type": "Feature", "properties": { "element": "node", "id": 7016451755, "name": "Al - Rasheed Hospital", "amenity": "hospital", "water": null, "natural": null }, "geometry": { "type": "Point", "coordinates": [ 77.3977843, 23.2617624 ] } },
{ "type": "Feature", "properties": { "element": "node", "id": 7016528077, "name": "Kid Kare", "amenity": "hospital", "water": null, "natural": null }, "geometry": { "type": "Point", "coordinates": [ 77.389707, 23.2676723 ] } },
{ "type": "Feature", "properties": { "element": "node", "id": 7016638593, "name": "Asian Globus Liver And Gastroenterology Centre", "amenity": "clinic", "water": null, "natural": null }, "geometry": { "type": "Point", "coordinates": [ 77.4269749, 23.2147497 ] } },
{ "type": "Feature", "properties": { "element": "node", "id": 7016647042, "name": "Ankur Maternity And Nursing Home", "amenity": "hospital", "water": null, "natural": null }, "geometry": { "type": "Point", "coordinates": [ 77.3887213, 23.2711503 ] } },
{ "type": "Feature", "properties": { "element": "node", "id": 7016647059, "name": "Rainbow Children Hospital, Bhopal", "amenity": "hospital", "water": null, "natural": null }, "geometry": { "type": "Point", "coordinates": [ 77.3983128, 23.2356788 ] } },
{ "type": "Feature", "properties": { "element": "node", "id": 7016647089, "name": "Hi-Tech Eye Care and Laser Center", "amenity": "hospital", "water": null, "natural": null }, "geometry": { "type": "Point", "coordinates": [ 77.3938631, 23.2616106 ] } },
{ "type": "Feature", "properties": { "element": "node", "id": 7016714429, "name": "Ayush Hospital and Research Centre", "amenity": "hospital", "water": null, "natural": null }, "geometry": { "type": "Point", "coordinates": [ 77.4309996, 23.25277 ] } },
{ "type": "Feature", "properties": { "element": "node", "id": 7016767826, "name": "Siddharth Eye Hospital", "amenity": "hospital", "water": null, "natural": null }, "geometry": { "type": "Point", "coordinates": [ 77.3953892, 23.233081 ] } },
{ "type": "Feature", "properties": { "element": "node", "id": 7016787945, "name": "Vijaya Maternity and Nursing Home", "amenity": "clinic", "water": null, "natural": null }, "geometry": { "type": "Point", "coordinates": [ 77.437811, 23.2377429 ] } },
{ "type": "Feature", "properties": { "element": "node", "id": 7017074866, "name": "Swami Vivekanand Regional Spine Centre", "amenity": "hospital", "water": null, "natural": null }, "geometry": { "type": "Point", "coordinates": [ 77.4307877, 23.2405328 ] } },
{ "type": "Feature", "properties": { "element": "node", "id": 7017098522, "name": "Miracles Children Hospital", "amenity": "hospital", "water": null, "natural": null }, "geometry": { "type": "Point", "coordinates": [ 77.4343295, 23.2369443 ] } },
{ "type": "Feature", "properties": { "element": "node", "id": 7017098523, "name": "Mayo Hospital, Bhopal", "amenity": "hospital", "water": null, "natural": null }, "geometry": { "type": "Point", "coordinates": [ 77.3890002, 23.2622106 ] } },
{ "type": "Feature", "properties": { "element": "node", "id": 7017098524, "name": "Roshan Maternity Child Care And General Hospital", "amenity": "hospital", "water": null, "natural": null }, "geometry": { "type": "Point", "coordinates": [ 77.4390656, 23.2527836 ] } },
{ "type": "Feature", "properties": { "element": "node", "id": 7017098529, "name": "Bhambhani Hospital", "amenity": "hospital", "water": null, "natural": null }, "geometry": { "type": "Point", "coordinates": [ 77.3367957, 23.2697538 ] } },
{ "type": "Feature", "properties": { "element": "node", "id": 7017170463, "name": "R.A Stone and Surgical Care", "amenity": "hospital", "water": null, "natural": null }, "geometry": { "type": "Point", "coordinates": [ 77.3952263, 23.2332387 ] } },
{ "type": "Feature", "properties": { "element": "node", "id": 7017180604, "name": "Suditi Hospital - Bhopal", "amenity": "hospital", "water": null, "natural": null }, "geometry": { "type": "Point", "coordinates": [ 77.3657897, 23.2766683 ] } },
{ "type": "Feature", "properties": { "element": "node", "id": 7017489021, "name": "S.V Eye Care and Research Centre", "amenity": "hospital", "water": null, "natural": null }, "geometry": { "type": "Point", "coordinates": [ 77.392424, 23.2613802 ] } },
{ "type": "Feature", "properties": { "element": "node", "id": 7017489027, "name": "Muskan Maternity and General Hospital", "amenity": "hospital", "water": null, "natural": null }, "geometry": { "type": "Point", "coordinates": [ 77.4650335, 23.2728295 ] } },
{ "type": "Feature", "properties": { "element": "node", "id": 7017905353, "name": "Pathak's Clinic and Hi-Tech Diagnostic", "amenity": "clinic", "water": null, "natural": null }, "geometry": { "type": "Point", "coordinates": [ 77.4406502, 23.212281 ] } },
{ "type": "Feature", "properties": { "element": "node", "id": 7018318348, "name": "Hajela Hospital", "amenity": "hospital", "water": null, "natural": null }, "geometry": { "type": "Point", "coordinates": [ 77.3934285, 23.2249287 ] } },
{ "type": "Feature", "properties": { "element": "node", "id": 7089244955, "name": "Government Hospital Toomda", "amenity": "hospital", "water": null, "natural": null }, "geometry": { "type": "Point", "coordinates": [ 77.1909271, 23.3149468 ] } },
{ "type": "Feature", "properties": { "element": "node", "id": 7096140058, "name": "Civil Hospital", "amenity": "hospital", "water": null, "natural": null }, "geometry": { "type": "Point", "coordinates": [ 77.340247, 23.2721125 ] } },
{ "type": "Feature", "properties": { "element": "node", "id": 7101724820, "name": "Government hospital BERASIA", "amenity": "hospital", "water": null, "natural": null }, "geometry": { "type": "Point", "coordinates": [ 77.4306254, 23.6235136 ] } },
{ "type": "Feature", "properties": { "element": "node", "id": 7103460542, "name": "KAILASH NATH KATJU", "amenity": "hospital", "water": null, "natural": null }, "geometry": { "type": "Point", "coordinates": [ 77.3973834, 23.2339794 ] } },
{ "type": "Feature", "properties": { "element": "node", "id": 7106710075, "name": "All India Institute of Medical Sciences (AIIMS), Bhopal", "amenity": "hospital", "water": null, "natural": null }, "geometry": { "type": "Point", "coordinates": [ 77.4584547, 23.2093426 ] } },
{ "type": "Feature", "properties": { "element": "node", "id": 7107683358, "name": "Civil Dispensary 1100 Quarter", "amenity": "clinic", "water": null, "natural": null }, "geometry": { "type": "Point", "coordinates": [ 77.4285038, 23.2089715 ] } },
{ "type": "Feature", "properties": { "element": "node", "id": 7108262174, "name": "MASTERLAL SINGH HOSPITAL", "amenity": "hospital", "water": null, "natural": null }, "geometry": { "type": "Point", "coordinates": [ 77.3916972, 23.2714472 ] } },
{ "type": "Feature", "properties": { "element": "node", "id": 7288502754, "name": "Jaanki Hospital Bhopal", "amenity": "hospital", "water": null, "natural": null }, "geometry": { "type": "Point", "coordinates": [ 77.438149, 23.182475 ] } },
{ "type": "Feature", "properties": { "element": "node", "id": 7288502757, "name": "Gastrocare, Liver & Digestive Disease Center", "amenity": "hospital", "water": null, "natural": null }, "geometry": { "type": "Point", "coordinates": [ 77.437564, 23.212475 ] } },
{ "type": "Feature", "properties": { "element": "node", "id": 7288502759, "name": "J.K Hospital", "amenity": "hospital", "water": null, "natural": null }, "geometry": { "type": "Point", "coordinates": [ 77.427917, 23.179017 ] } },
{ "type": "Feature", "properties": { "element": "node", "id": 7288502761, "name": "Malti Hospital & Test Tube Baby Centre", "amenity": "hospital", "water": null, "natural": null }, "geometry": { "type": "Point", "coordinates": [ 77.431569, 23.209923 ] } },
{ "type": "Feature", "properties": { "element": "node", "id": 7288502763, "name": "RKDF Medical College Hospital & Research Centre", "amenity": "hospital", "water": null, "natural": null }, "geometry": { "type": "Point", "coordinates": [ 77.478925, 23.176076 ] } },
{ "type": "Feature", "properties": { "element": "node", "id": 7288502765, "name": "Manahi Hospital", "amenity": "hospital", "water": null, "natural": null }, "geometry": { "type": "Point", "coordinates": [ 77.438402, 23.20852 ] } },
{ "type": "Feature", "properties": { "element": "node", "id": 7288502766, "name": "B.S.Sacklecha Hospital And Trauma Centre", "amenity": "hospital", "water": null, "natural": null }, "geometry": { "type": "Point", "coordinates": [ 77.460498, 23.172951 ] } },
{ "type": "Feature", "properties": { "element": "node", "id": 7288502767, "name": "Orthocare Hospital", "amenity": "hospital", "water": null, "natural": null }, "geometry": { "type": "Point", "coordinates": [ 77.4281443, 23.1709998 ] } },
{ "type": "Feature", "properties": { "element": "node", "id": 7288502769, "name": "Kanha Maternity & Child Care Hospital", "amenity": "hospital", "water": null, "natural": null }, "geometry": { "type": "Point", "coordinates": [ 77.434562, 23.196031 ] } },
{ "type": "Feature", "properties": { "element": "node", "id": 7288502770, "name": "Mishra Hospital", "amenity": "hospital", "water": null, "natural": null }, "geometry": { "type": "Point", "coordinates": [ 77.415595, 23.165835 ] } },
{ "type": "Feature", "properties": { "element": "node", "id": 7288502772, "name": "Mount Hospital Bhopal", "amenity": "hospital", "water": null, "natural": null }, "geometry": { "type": "Point", "coordinates": [ 77.473807, 23.194218 ] } },
{ "type": "Feature", "properties": { "element": "node", "id": 7288502773, "name": "L.G.M. Hospital", "amenity": "hospital", "water": null, "natural": null }, "geometry": { "type": "Point", "coordinates": [ 77.46877, 23.163029 ] } },
{ "type": "Feature", "properties": { "element": "node", "id": 7288502776, "name": "Dulaar Children Hospital", "amenity": "hospital", "water": null, "natural": null }, "geometry": { "type": "Point", "coordinates": [ 77.474917, 23.153644 ] } },
{ "type": "Feature", "properties": { "element": "node", "id": 7288502777, "name": "Shree Vinayak Hospital", "amenity": "hospital", "water": null, "natural": null }, "geometry": { "type": "Point", "coordinates": [ 77.4201867, 23.1847754 ] } },
{ "type": "Feature", "properties": { "element": "node", "id": 7288502779, "name": "Colony Care Multi-Speciality Hospital", "amenity": "hospital", "water": null, "natural": null }, "geometry": { "type": "Point", "coordinates": [ 77.433355, 23.2149023 ] } },
{ "type": "Feature", "properties": { "element": "node", "id": 7288502783, "name": "Jainmshree Hospital", "amenity": "hospital", "water": null, "natural": null }, "geometry": { "type": "Point", "coordinates": [ 77.4309133, 23.2120918 ] } },
{ "type": "Feature", "properties": { "element": "node", "id": 7288502784, "name": "V Care Children Hospital", "amenity": "hospital", "water": null, "natural": null }, "geometry": { "type": "Point", "coordinates": [ 77.4233654, 23.1720945 ] } },
{ "type": "Feature", "properties": { "element": "node", "id": 7288502787, "name": "Siddhanta Hospital", "amenity": "hospital", "water": null, "natural": null }, "geometry": { "type": "Point", "coordinates": [ 77.425342, 23.171339 ] } },
{ "type": "Feature", "properties": { "element": "node", "id": 7288502792, "name": "Ojas Hospital", "amenity": "hospital", "water": null, "natural": null }, "geometry": { "type": "Point", "coordinates": [ 77.4657937, 23.195543 ] } },
{ "type": "Feature", "properties": { "element": "node", "id": 7288502795, "name": "Sks Hospital Bhopal", "amenity": "hospital", "water": null, "natural": null }, "geometry": { "type": "Point", "coordinates": [ 77.4084467, 23.131535 ] } },
{ "type": "Feature", "properties": { "element": "node", "id": 7288502798, "name": "RBM Advanced Eye Hospital", "amenity": "hospital", "water": null, "natural": null }, "geometry": { "type": "Point", "coordinates": [ 77.418302, 23.209026 ] } },
{ "type": "Feature", "properties": { "element": "node", "id": 7288502802, "name": "University Hospital", "amenity": "hospital", "water": null, "natural": null }, "geometry": { "type": "Point", "coordinates": [ 77.45071, 23.202278 ] } },
{ "type": "Feature", "properties": { "element": "node", "id": 7288502807, "name": "Swasth Hospital", "amenity": "hospital", "water": null, "natural": null }, "geometry": { "type": "Point", "coordinates": [ 77.4466394, 23.201299 ] } },
{ "type": "Feature", "properties": { "element": "node", "id": 7288502810, "name": "Shri Siddhi Vinayak Miracles Hospital", "amenity": "hospital", "water": null, "natural": null }, "geometry": { "type": "Point", "coordinates": [ 77.432685, 23.191201 ] } },
{ "type": "Feature", "properties": { "element": "node", "id": 7288502811, "name": "Bhopal City Hospital", "amenity": "hospital", "water": null, "natural": null }, "geometry": { "type": "Point", "coordinates": [ 77.4693157, 23.1623654 ] } },
{ "type": "Feature", "properties": { "element": "node", "id": 7288502813, "name": "Krishna Hospital", "amenity": "hospital", "water": null, "natural": null }, "geometry": { "type": "Point", "coordinates": [ 77.435336, 23.186688 ] } },
{ "type": "Feature", "properties": { "element": "node", "id": 7288502817, "name": "Central Reserve Police Force - Composite Hospital", "amenity": "hospital", "water": null, "natural": null }, "geometry": { "type": "Point", "coordinates": [ 77.5354616, 23.1387028 ] } },
{ "type": "Feature", "properties": { "element": "node", "id": 7288502818, "name": "bansal hospital", "amenity": "hospital", "water": null, "natural": null }, "geometry": { "type": "Point", "coordinates": [ 77.396377, 23.213384 ] } },
{ "type": "Feature", "properties": { "element": "node", "id": 7288502822, "name": "Astha Hospital", "amenity": "hospital", "water": null, "natural": null }, "geometry": { "type": "Point", "coordinates": [ 77.432444, 23.21118 ] } },
{ "type": "Feature", "properties": { "element": "node", "id": 7288502823, "name": "LN Medical Collage and J.K Hospital", "amenity": "hospital", "water": null, "natural": null }, "geometry": { "type": "Point", "coordinates": [ 77.428247, 23.177274 ] } },
{ "type": "Feature", "properties": { "element": "node", "id": 7288502826, "name": "Dr Kamlesh Talesara", "amenity": "hospital", "water": null, "natural": null }, "geometry": { "type": "Point", "coordinates": [ 77.414268, 23.199468 ] } },
{ "type": "Feature", "properties": { "element": "node", "id": 7288502828, "name": "Shalya Joint Care Hospital", "amenity": "hospital", "water": null, "natural": null }, "geometry": { "type": "Point", "coordinates": [ 77.4301604, 23.1978545 ] } },
{ "type": "Feature", "properties": { "element": "node", "id": 7288502832, "name": "Divya Hospital", "amenity": "hospital", "water": null, "natural": null }, "geometry": { "type": "Point", "coordinates": [ 77.41431, 23.163756 ] } },
{ "type": "Feature", "properties": { "element": "node", "id": 7288502834, "name": "Matratva Hospital", "amenity": "hospital", "water": null, "natural": null }, "geometry": { "type": "Point", "coordinates": [ 77.41736, 23.187859 ] } },
{ "type": "Feature", "properties": { "element": "node", "id": 7288502836, "name": "rkdf hospital", "amenity": "hospital", "water": null, "natural": null }, "geometry": { "type": "Point", "coordinates": [ 77.450875, 23.185204 ] } },
{ "type": "Feature", "properties": { "element": "node", "id": 7288502839, "name": "Bhabha General Hospital", "amenity": "hospital", "water": null, "natural": null }, "geometry": { "type": "Point", "coordinates": [ 77.471741, 23.173442 ] } },
{ "type": "Feature", "properties": { "element": "node", "id": 7288502841, "name": "Shri Satya Sai Hospital", "amenity": "hospital", "water": null, "natural": null }, "geometry": { "type": "Point", "coordinates": [ 77.446307, 23.202132 ] } },
{ "type": "Feature", "properties": { "element": "node", "id": 7288502842, "name": "Ubbuntu Heart Hospital", "amenity": "hospital", "water": null, "natural": null }, "geometry": { "type": "Point", "coordinates": [ 77.4590072, 23.1722091 ] } },
{ "type": "Feature", "properties": { "element": "node", "id": 7288502845, "name": "Galaxy hospital", "amenity": "hospital", "water": null, "natural": null }, "geometry": { "type": "Point", "coordinates": [ 77.422264, 23.171374 ] } },
{ "type": "Feature", "properties": { "element": "node", "id": 7288502847, "name": "The Glory Skin Clinic", "amenity": "clinic", "water": null, "natural": null }, "geometry": { "type": "Point", "coordinates": [ 77.447214, 23.199138 ] } },
{ "type": "Feature", "properties": { "element": "node", "id": 7288502848, "name": "Shivalaya Hospital", "amenity": "hospital", "water": null, "natural": null }, "geometry": { "type": "Point", "coordinates": [ 77.428613, 23.1587783 ] } },
{ "type": "Feature", "properties": { "element": "node", "id": 7288631338, "name": "All Care Hospital", "amenity": "hospital", "water": null, "natural": null }, "geometry": { "type": "Point", "coordinates": [ 77.4264, 23.253359 ] } },
{ "type": "Feature", "properties": { "element": "node", "id": 7288631339, "name": "Sant Hirdaram Yoga and Nature cure Hospital", "amenity": "hospital", "water": null, "natural": null }, "geometry": { "type": "Point", "coordinates": [ 77.339174, 23.266028 ] } },
{ "type": "Feature", "properties": { "element": "node", "id": 7288631340, "name": "Jamna Hospital", "amenity": "hospital", "water": null, "natural": null }, "geometry": { "type": "Point", "coordinates": [ 77.486122, 23.252763 ] } },
{ "type": "Feature", "properties": { "element": "node", "id": 7288631341, "name": "Cmas Koh E Fiza Hospital", "amenity": "hospital", "water": null, "natural": null }, "geometry": { "type": "Point", "coordinates": [ 77.380524, 23.264925 ] } },
{ "type": "Feature", "properties": { "element": "node", "id": 7288631342, "name": "Unani Hospital", "amenity": "hospital", "water": null, "natural": null }, "geometry": { "type": "Point", "coordinates": [ 77.4041094, 23.2521287 ] } },
{ "type": "Feature", "properties": { "element": "node", "id": 7288631343, "name": "Silver Line Hospital", "amenity": "hospital", "water": null, "natural": null }, "geometry": { "type": "Point", "coordinates": [ 77.393839, 23.263746 ] } },
{ "type": "Feature", "properties": { "element": "node", "id": 7288631344, "name": "Maheshwari Hospital", "amenity": "hospital", "water": null, "natural": null }, "geometry": { "type": "Point", "coordinates": [ 77.372306, 23.277062 ] } },
{ "type": "Feature", "properties": { "element": "node", "id": 7288631345, "name": "Paras Hospital", "amenity": "hospital", "water": null, "natural": null }, "geometry": { "type": "Point", "coordinates": [ 77.39392, 23.2632152 ] } },
{ "type": "Feature", "properties": { "element": "node", "id": 7288631346, "name": "Nandan Hospital", "amenity": "hospital", "water": null, "natural": null }, "geometry": { "type": "Point", "coordinates": [ 77.4169728, 23.2500507 ] } },
{ "type": "Feature", "properties": { "element": "node", "id": 7288631347, "name": "Metro Multispeciality & Fracture Hospital", "amenity": "hospital", "water": null, "natural": null }, "geometry": { "type": "Point", "coordinates": [ 77.4959018, 23.238589 ] } },
{ "type": "Feature", "properties": { "element": "node", "id": 7288631348, "name": "Madhavbaug cardiac clinic", "amenity": "hospital", "water": null, "natural": null }, "geometry": { "type": "Point", "coordinates": [ 77.37255, 23.276649 ] } },
{ "type": "Feature", "properties": { "element": "node", "id": 7288631349, "name": "Maxcare Hospital", "amenity": "hospital", "water": null, "natural": null }, "geometry": { "type": "Point", "coordinates": [ 77.3957463, 23.258056 ] } },
{ "type": "Feature", "properties": { "element": "node", "id": 7288631350, "name": "Gayatri Hospital And Trauma Centre", "amenity": "hospital", "water": null, "natural": null }, "geometry": { "type": "Point", "coordinates": [ 77.488308, 23.249134 ] } },
{ "type": "Feature", "properties": { "element": "node", "id": 7288631351, "name": "Hayat Hospital", "amenity": "hospital", "water": null, "natural": null }, "geometry": { "type": "Point", "coordinates": [ 77.4074972, 23.2697662 ] } },
{ "type": "Feature", "properties": { "element": "node", "id": 7288631352, "name": "Srijan Hospital", "amenity": "hospital", "water": null, "natural": null }, "geometry": { "type": "Point", "coordinates": [ 77.435997, 23.255325 ] } },
{ "type": "Feature", "properties": { "element": "node", "id": 7288631354, "name": "Colony Hospital", "amenity": "hospital", "water": null, "natural": null }, "geometry": { "type": "Point", "coordinates": [ 77.434557, 23.221097 ] } },
{ "type": "Feature", "properties": { "element": "node", "id": 7288631355, "name": "Zindagi Hospital", "amenity": "hospital", "water": null, "natural": null }, "geometry": { "type": "Point", "coordinates": [ 77.467351, 23.269603 ] } },
{ "type": "Feature", "properties": { "element": "node", "id": 7288631356, "name": "Thyrocare Centre", "amenity": "hospital", "water": null, "natural": null }, "geometry": { "type": "Point", "coordinates": [ 77.4826762, 23.2195151 ] } },
{ "type": "Feature", "properties": { "element": "node", "id": 7288631357, "name": "Gas Rahat Hospital", "amenity": "hospital", "water": null, "natural": null }, "geometry": { "type": "Point", "coordinates": [ 77.4311342, 23.253862 ] } },
{ "type": "Feature", "properties": { "element": "node", "id": 7288631358, "name": "Bhopal Memorial & Gas Rahat Hospital", "amenity": "hospital", "water": null, "natural": null }, "geometry": { "type": "Point", "coordinates": [ 77.4200427, 23.2668298 ] } },
{ "type": "Feature", "properties": { "element": "node", "id": 7288631359, "name": "MP Hospital Bhopal", "amenity": "hospital", "water": null, "natural": null }, "geometry": { "type": "Point", "coordinates": [ 77.4599857, 23.2514169 ] } },
{ "type": "Feature", "properties": { "element": "node", "id": 7288631360, "name": "Ballabh ENT Hospital", "amenity": "hospital", "water": null, "natural": null }, "geometry": { "type": "Point", "coordinates": [ 77.3992566, 23.2633324 ] } },
{ "type": "Feature", "properties": { "element": "node", "id": 7288631361, "name": "Mehko Hospital", "amenity": "hospital", "water": null, "natural": null }, "geometry": { "type": "Point", "coordinates": [ 77.41259, 23.251139 ] } },
{ "type": "Feature", "properties": { "element": "node", "id": 7288631362, "name": "Hindustan Hospital", "amenity": "hospital", "water": null, "natural": null }, "geometry": { "type": "Point", "coordinates": [ 77.428758, 23.2615613 ] } },
{ "type": "Feature", "properties": { "element": "node", "id": 7288631363, "name": "Gayatri Hospital Anand Nagar", "amenity": "hospital", "water": null, "natural": null }, "geometry": { "type": "Point", "coordinates": [ 77.48461, 23.2504261 ] } },
{ "type": "Feature", "properties": { "element": "node", "id": 7288631364, "name": "Batra Hospital", "amenity": "hospital", "water": null, "natural": null }, "geometry": { "type": "Point", "coordinates": [ 77.4347058, 23.2337463 ] } },
{ "type": "Feature", "properties": { "element": "node", "id": 7288631365, "name": "Care Infinity Hospital", "amenity": "hospital", "water": null, "natural": null }, "geometry": { "type": "Point", "coordinates": [ 77.3668008, 23.2737457 ] } },
{ "type": "Feature", "properties": { "element": "node", "id": 7288631366, "name": "Pulse hospital", "amenity": "hospital", "water": null, "natural": null }, "geometry": { "type": "Point", "coordinates": [ 77.4053093, 23.2604152 ] } },
{ "type": "Feature", "properties": { "element": "node", "id": 7288631367, "name": "M J Hospital", "amenity": "hospital", "water": null, "natural": null }, "geometry": { "type": "Point", "coordinates": [ 77.4881688, 23.250024 ] } },
{ "type": "Feature", "properties": { "element": "node", "id": 7288631368, "name": "career hospital", "amenity": "hospital", "water": null, "natural": null }, "geometry": { "type": "Point", "coordinates": [ 77.4504262, 23.2314706 ] } },
{ "type": "Feature", "properties": { "element": "node", "id": 7288631369, "name": "Shree Shubh Hospital", "amenity": "hospital", "water": null, "natural": null }, "geometry": { "type": "Point", "coordinates": [ 77.441712, 23.2498466 ] } },
{ "type": "Feature", "properties": { "element": "node", "id": 7288631370, "name": "Sakshi co-operative hospital", "amenity": "hospital", "water": null, "natural": null }, "geometry": { "type": "Point", "coordinates": [ 77.4864343, 23.2280354 ] } },
{ "type": "Feature", "properties": { "element": "node", "id": 7288631371, "name": "Darbari Hospital", "amenity": "hospital", "water": null, "natural": null }, "geometry": { "type": "Point", "coordinates": [ 77.4015169, 23.2705381 ] } },
{ "type": "Feature", "properties": { "element": "node", "id": 7288631372, "name": "Hope s s hospital", "amenity": "hospital", "water": null, "natural": null }, "geometry": { "type": "Point", "coordinates": [ 77.478446, 23.257513 ] } },
{ "type": "Feature", "properties": { "element": "node", "id": 7288631373, "name": "Mona Hospital", "amenity": "hospital", "water": null, "natural": null }, "geometry": { "type": "Point", "coordinates": [ 77.433678, 23.253224 ] } },
{ "type": "Feature", "properties": { "element": "node", "id": 7288631374, "name": "aashirwad multispeciality hospital", "amenity": "hospital", "water": null, "natural": null }, "geometry": { "type": "Point", "coordinates": [ 77.484838, 23.222251 ] } },
{ "type": "Feature", "properties": { "element": "node", "id": 7288631375, "name": "Shubh Hospital", "amenity": "hospital", "water": null, "natural": null }, "geometry": { "type": "Point", "coordinates": [ 77.4726603, 23.2655073 ] } },
{ "type": "Feature", "properties": { "element": "node", "id": 7288631376, "name": "Parulkar Hospitals", "amenity": "hospital", "water": null, "natural": null }, "geometry": { "type": "Point", "coordinates": [ 77.430376, 23.220139 ] } },
{ "type": "Feature", "properties": { "element": "node", "id": 7288631377, "name": "R.K. Hospital and Research Centre (A Unit of R.K Healthcare)", "amenity": "hospital", "water": null, "natural": null }, "geometry": { "type": "Point", "coordinates": [ 77.466163, 23.252527 ] } },
{ "type": "Feature", "properties": { "element": "node", "id": 7288631378, "name": "Central Hospital & Research Center", "amenity": "hospital", "water": null, "natural": null }, "geometry": { "type": "Point", "coordinates": [ 77.3941763, 23.2646039 ] } },
{ "type": "Feature", "properties": { "element": "node", "id": 7288631379, "name": "Arnav Hospital, Bhopal", "amenity": "hospital", "water": null, "natural": null }, "geometry": { "type": "Point", "coordinates": [ 77.504064, 23.252094 ] } },
{ "type": "Feature", "properties": { "element": "node", "id": 7288631380, "name": "Unique Hospital", "amenity": "hospital", "water": null, "natural": null }, "geometry": { "type": "Point", "coordinates": [ 77.3938354, 23.2635646 ] } },
{ "type": "Feature", "properties": { "element": "node", "id": 7288631381, "name": "ECHS Polyclinic", "amenity": "clinic", "water": null, "natural": null }, "geometry": { "type": "Point", "coordinates": [ 77.33363, 23.276895 ] } },
{ "type": "Feature", "properties": { "element": "node", "id": 7288631382, "name": "Nagpur Hospital", "amenity": "hospital", "water": null, "natural": null }, "geometry": { "type": "Point", "coordinates": [ 77.503047, 23.25137 ] } },
{ "type": "Feature", "properties": { "element": "node", "id": 7288631383, "name": "Dolphin Children Hospital", "amenity": "hospital", "water": null, "natural": null }, "geometry": { "type": "Point", "coordinates": [ 77.46257, 23.261919 ] } },
{ "type": "Feature", "properties": { "element": "node", "id": 7288631384, "name": "Rudransh Multispeciality Hospital", "amenity": "hospital", "water": null, "natural": null }, "geometry": { "type": "Point", "coordinates": [ 77.502513, 23.250681 ] } },
{ "type": "Feature", "properties": { "element": "node", "id": 7288631385, "name": "Vaishno Hospital bhopal", "amenity": "hospital", "water": null, "natural": null }, "geometry": { "type": "Point", "coordinates": [ 77.4962629, 23.2380758 ] } },
{ "type": "Feature", "properties": { "element": "node", "id": 7288631386, "name": "T B Hospital", "amenity": "hospital", "water": null, "natural": null }, "geometry": { "type": "Point", "coordinates": [ 77.3781166, 23.2750528 ] } },
{ "type": "Feature", "properties": { "element": "node", "id": 7288631387, "name": "Indira Gandhi Hospital", "amenity": "hospital", "water": null, "natural": null }, "geometry": { "type": "Point", "coordinates": [ 77.4010633, 23.2610396 ] } },
{ "type": "Feature", "properties": { "element": "node", "id": 7288631388, "name": "Police Hospital", "amenity": "hospital", "water": null, "natural": null }, "geometry": { "type": "Point", "coordinates": [ 77.4113718, 23.2465243 ] } },
{ "type": "Feature", "properties": { "element": "node", "id": 7288631389, "name": "G.S.M. Hospital", "amenity": "hospital", "water": null, "natural": null }, "geometry": { "type": "Point", "coordinates": [ 77.3959966, 23.2337404 ] } },
{ "type": "Feature", "properties": { "element": "node", "id": 7288631390, "name": "Tripti Hospital", "amenity": "hospital", "water": null, "natural": null }, "geometry": { "type": "Point", "coordinates": [ 77.370737, 23.273679 ] } },
{ "type": "Feature", "properties": { "element": "node", "id": 7288631391, "name": "Superintendent Office Sultania Zanana Hospital", "amenity": "hospital", "water": null, "natural": null }, "geometry": { "type": "Point", "coordinates": [ 77.4081332, 23.2552746 ] } },
{ "type": "Feature", "properties": { "element": "node", "id": 7288631392, "name": "Protima Mullik Police Lady Hospital", "amenity": "hospital", "water": null, "natural": null }, "geometry": { "type": "Point", "coordinates": [ 77.4104892, 23.2435872 ] } },
{ "type": "Feature", "properties": { "element": "node", "id": 7288631393, "name": "MKM Stone & Urology Hospital", "amenity": "hospital", "water": null, "natural": null }, "geometry": { "type": "Point", "coordinates": [ 77.4306234, 23.2207305 ] } },
{ "type": "Feature", "properties": { "element": "node", "id": 7288631394, "name": "Saluja Hospital", "amenity": "hospital", "water": null, "natural": null }, "geometry": { "type": "Point", "coordinates": [ 77.401097, 23.268316 ] } },
{ "type": "Feature", "properties": { "element": "node", "id": 7288631395, "name": "Global Hospital", "amenity": "hospital", "water": null, "natural": null }, "geometry": { "type": "Point", "coordinates": [ 77.424238, 23.216619 ] } },
{ "type": "Feature", "properties": { "element": "node", "id": 7288631396, "name": "Jaimini Hospital", "amenity": "hospital", "water": null, "natural": null }, "geometry": { "type": "Point", "coordinates": [ 77.413919, 23.253402 ] } },
{ "type": "Feature", "properties": { "element": "node", "id": 7288631397, "name": "Sunetra Eye Hospital", "amenity": "hospital", "water": null, "natural": null }, "geometry": { "type": "Point", "coordinates": [ 77.400791, 23.266097 ] } },
{ "type": "Feature", "properties": { "element": "node", "id": 7288631398, "name": "Navodaya Cancer Hospital", "amenity": "hospital", "water": null, "natural": null }, "geometry": { "type": "Point", "coordinates": [ 77.461701, 23.253032 ] } },
{ "type": "Feature", "properties": { "element": "node", "id": 7288631399, "name": "Anand Joint Replacement Centre", "amenity": "hospital", "water": null, "natural": null }, "geometry": { "type": "Point", "coordinates": [ 77.4656512, 23.2649868 ] } },
{ "type": "Feature", "properties": { "element": "node", "id": 7288631400, "name": "OM Hospital", "amenity": "hospital", "water": null, "natural": null }, "geometry": { "type": "Point", "coordinates": [ 77.430654, 23.2507344 ] } },
{ "type": "Feature", "properties": { "element": "node", "id": 7288631401, "name": "Jupiter Hospital", "amenity": "hospital", "water": null, "natural": null }, "geometry": { "type": "Point", "coordinates": [ 77.422628, 23.2503903 ] } },
{ "type": "Feature", "properties": { "element": "node", "id": 7288631402, "name": "Indira IVF Bhopal", "amenity": "hospital", "water": null, "natural": null }, "geometry": { "type": "Point", "coordinates": [ 77.443582, 23.231072 ] } },
{ "type": "Feature", "properties": { "element": "node", "id": 7288631403, "name": "Hardev Hospital", "amenity": "hospital", "water": null, "natural": null }, "geometry": { "type": "Point", "coordinates": [ 77.344475, 23.272502 ] } },
{ "type": "Feature", "properties": { "element": "node", "id": 7288631404, "name": "Chirayu Health & Medicare Pvt. Ltd.", "amenity": "hospital", "water": null, "natural": null }, "geometry": { "type": "Point", "coordinates": [ 77.397161, 23.258135 ] } },
{ "type": "Feature", "properties": { "element": "node", "id": 7288631405, "name": "Sachin Mamta Hospital", "amenity": "hospital", "water": null, "natural": null }, "geometry": { "type": "Point", "coordinates": [ 77.471653, 23.249564 ] } },
{ "type": "Feature", "properties": { "element": "node", "id": 7288631406, "name": "A.K. Hospital", "amenity": "hospital", "water": null, "natural": null }, "geometry": { "type": "Point", "coordinates": [ 77.399811, 23.224112 ] } },
{ "type": "Feature", "properties": { "element": "node", "id": 7288631407, "name": "Nandan Hospital", "amenity": "hospital", "water": null, "natural": null }, "geometry": { "type": "Point", "coordinates": [ 77.401481, 23.2704374 ] } },
{ "type": "Feature", "properties": { "element": "node", "id": 7288631408, "name": "Mansi Hospital", "amenity": "hospital", "water": null, "natural": null }, "geometry": { "type": "Point", "coordinates": [ 77.418607, 23.257099 ] } },
{ "type": "Feature", "properties": { "element": "node", "id": 7288631409, "name": "Aggrawal's Bombay Children Hospital", "amenity": "hospital", "water": null, "natural": null }, "geometry": { "type": "Point", "coordinates": [ 77.4002823, 23.245765 ] } },
{ "type": "Feature", "properties": { "element": "node", "id": 7288631410, "name": "25Th Battalion Hospital", "amenity": "hospital", "water": null, "natural": null }, "geometry": { "type": "Point", "coordinates": [ 77.380268, 23.22181 ] } },
{ "type": "Feature", "properties": { "element": "node", "id": 7288631411, "name": "Suyash Hospital", "amenity": "hospital", "water": null, "natural": null }, "geometry": { "type": "Point", "coordinates": [ 77.3956623, 23.2696244 ] } },
{ "type": "Feature", "properties": { "element": "node", "id": 7288631412, "name": "Dr Rahul Agarwal ENT Clinic", "amenity": "hospital", "water": null, "natural": null }, "geometry": { "type": "Point", "coordinates": [ 77.4341465, 23.2197879 ] } },
{ "type": "Feature", "properties": { "element": "node", "id": 7288631413, "name": "Swastik Hospital", "amenity": "hospital", "water": null, "natural": null }, "geometry": { "type": "Point", "coordinates": [ 77.496581, 23.252268 ] } },
{ "type": "Feature", "properties": { "element": "node", "id": 7288631414, "name": "Narayan Shri Homeopathic Hospital", "amenity": "hospital", "water": null, "natural": null }, "geometry": { "type": "Point", "coordinates": [ 77.419474, 23.264439 ] } },
{ "type": "Feature", "properties": { "element": "node", "id": 7288631415, "name": "ASG Eye Hospital", "amenity": "hospital", "water": null, "natural": null }, "geometry": { "type": "Point", "coordinates": [ 77.4388478, 23.2154253 ] } },
{ "type": "Feature", "properties": { "element": "node", "id": 7288631416, "name": "Devi Rajeshwari Hospital", "amenity": "hospital", "water": null, "natural": null }, "geometry": { "type": "Point", "coordinates": [ 77.458523, 23.251641 ] } },
{ "type": "Feature", "properties": { "element": "node", "id": 7288631417, "name": "ABM Muntispeciality Hospital", "amenity": "hospital", "water": null, "natural": null }, "geometry": { "type": "Point", "coordinates": [ 77.3938848, 23.2633705 ] } },
{ "type": "Feature", "properties": { "element": "node", "id": 7288631418, "name": "Muskan Children's & General Hospital Bhopal", "amenity": "hospital", "water": null, "natural": null }, "geometry": { "type": "Point", "coordinates": [ 77.40287, 23.2768125 ] } },
{ "type": "Feature", "properties": { "element": "node", "id": 7288631419, "name": "Apple hospital", "amenity": "hospital", "water": null, "natural": null }, "geometry": { "type": "Point", "coordinates": [ 77.4150939, 23.2511711 ] } },
{ "type": "Feature", "properties": { "element": "node", "id": 7288631420, "name": "Sahaj Hospital", "amenity": "hospital", "water": null, "natural": null }, "geometry": { "type": "Point", "coordinates": [ 77.428413, 23.261772 ] } },
{ "type": "Feature", "properties": { "element": "node", "id": 7288631421, "name": "Peoples General Hospital", "amenity": "hospital", "water": null, "natural": null }, "geometry": { "type": "Point", "coordinates": [ 77.402743, 23.274346 ] } },
{ "type": "Feature", "properties": { "element": "node", "id": 7288631422, "name": "Pulse Hospital", "amenity": "hospital", "water": null, "natural": null }, "geometry": { "type": "Point", "coordinates": [ 77.4049403, 23.2605895 ] } },
{ "type": "Feature", "properties": { "element": "node", "id": 7288631423, "name": "Balaji Fracture & General Hospital", "amenity": "hospital", "water": null, "natural": null }, "geometry": { "type": "Point", "coordinates": [ 77.471633, 23.250344 ] } },
{ "type": "Feature", "properties": { "element": "node", "id": 7288631424, "name": "Himalaya Optical Bhopal", "amenity": "hospital", "water": null, "natural": null }, "geometry": { "type": "Point", "coordinates": [ 77.429734, 23.232979 ] } },
{ "type": "Feature", "properties": { "element": "node", "id": 7288631425, "name": "Cancer Hospital", "amenity": "hospital", "water": null, "natural": null }, "geometry": { "type": "Point", "coordinates": [ 77.380577, 23.27308 ] } },
{ "type": "Feature", "properties": { "element": "node", "id": 7288631426, "name": "Lord Buddha Hospital", "amenity": "hospital", "water": null, "natural": null }, "geometry": { "type": "Point", "coordinates": [ 77.4859876, 23.2386597 ] } },
{ "type": "Feature", "properties": { "element": "node", "id": 7288631427, "name": "Jindal Maternity Hospital", "amenity": "hospital", "water": null, "natural": null }, "geometry": { "type": "Point", "coordinates": [ 77.3932195, 23.230583 ] } },
{ "type": "Feature", "properties": { "element": "node", "id": 7288631428, "name": "Kiishnani Hospital", "amenity": "hospital", "water": null, "natural": null }, "geometry": { "type": "Point", "coordinates": [ 77.3452807, 23.2720075 ] } },
{ "type": "Feature", "properties": { "element": "node", "id": 7288631429, "name": "Manya Hospital", "amenity": "hospital", "water": null, "natural": null }, "geometry": { "type": "Point", "coordinates": [ 77.3947884, 23.2676797 ] } },
{ "type": "Feature", "properties": { "element": "node", "id": 7288793800, "name": "Global Hospital", "amenity": "hospital", "water": null, "natural": null }, "geometry": { "type": "Point", "coordinates": [ 77.405068, 23.323475 ] } },
{ "type": "Feature", "properties": { "element": "node", "id": 7288793801, "name": "Srijan General Hospital And Nursing Home", "amenity": "hospital", "water": null, "natural": null }, "geometry": { "type": "Point", "coordinates": [ 77.4662053, 23.2813234 ] } },
{ "type": "Feature", "properties": { "element": "node", "id": 7288793804, "name": "Mohit Day Care Hospital", "amenity": "hospital", "water": null, "natural": null }, "geometry": { "type": "Point", "coordinates": [ 77.465615, 23.280336 ] } },
{ "type": "Feature", "properties": { "element": "node", "id": 7288793808, "name": "New star hospital", "amenity": "hospital", "water": null, "natural": null }, "geometry": { "type": "Point", "coordinates": [ 77.40302, 23.278182 ] } },
{ "type": "Feature", "properties": { "element": "node", "id": 7288793809, "name": "Aadhar Hospital", "amenity": "hospital", "water": null, "natural": null }, "geometry": { "type": "Point", "coordinates": [ 77.408562, 23.302993 ] } },
{ "type": "Feature", "properties": { "element": "node", "id": 7288793822, "name": "Central Hospital", "amenity": "hospital", "water": null, "natural": null }, "geometry": { "type": "Point", "coordinates": [ 77.3592499, 23.2817728 ] } },
{ "type": "Feature", "properties": { "element": "node", "id": 7288793831, "name": "Shri Sai Hospital", "amenity": "hospital", "water": null, "natural": null }, "geometry": { "type": "Point", "coordinates": [ 77.41221, 23.303048 ] } },
{ "type": "Feature", "properties": { "element": "node", "id": 7288793834, "name": "Shradha Hospital", "amenity": "hospital", "water": null, "natural": null }, "geometry": { "type": "Point", "coordinates": [ 77.3457958, 23.2955194 ] } },
{ "type": "Feature", "properties": { "element": "node", "id": 7288793840, "name": "Promise Children & general Hospital", "amenity": "hospital", "water": null, "natural": null }, "geometry": { "type": "Point", "coordinates": [ 77.4037377, 23.2926896 ] } },
{ "type": "Feature", "properties": { "element": "node", "id": 7288793842, "name": "Mahaveer Institute of Medical Sciences and Research", "amenity": "hospital", "water": null, "natural": null }, "geometry": { "type": "Point", "coordinates": [ 77.365381, 23.3123573 ] } },
{ "type": "Feature", "properties": { "element": "node", "id": 7288793843, "name": "Divisional Railway Hospital, Bhopal", "amenity": "hospital", "water": null, "natural": null }, "geometry": { "type": "Point", "coordinates": [ 77.422307, 23.280011 ] } },
{ "type": "Feature", "properties": { "element": "node", "id": 7288793845, "name": "Vidhata Multi Speciality Hospital", "amenity": "hospital", "water": null, "natural": null }, "geometry": { "type": "Point", "coordinates": [ 77.436358, 23.304155 ] } },
{ "type": "Feature", "properties": { "element": "node", "id": 7288793846, "name": "New Apex Hospital", "amenity": "hospital", "water": null, "natural": null }, "geometry": { "type": "Point", "coordinates": [ 77.403085, 23.277956 ] } },
{ "type": "Feature", "properties": { "element": "node", "id": 7288793847, "name": "Capital Hospital", "amenity": "hospital", "water": null, "natural": null }, "geometry": { "type": "Point", "coordinates": [ 77.4061754, 23.3029552 ] } },
{ "type": "Feature", "properties": { "element": "node", "id": 7288793850, "name": "Peoples College Of Paramedical Science & Research Center", "amenity": "hospital", "water": null, "natural": null }, "geometry": { "type": "Point", "coordinates": [ 77.419681, 23.301544 ] } },
{ "type": "Feature", "properties": { "element": "node", "id": 7288793860, "name": "Carewell Multispeciality Hospital", "amenity": "hospital", "water": null, "natural": null }, "geometry": { "type": "Point", "coordinates": [ 77.376758, 23.281349 ] } },
{ "type": "Feature", "properties": { "element": "node", "id": 7288793870, "name": "Jeewanshree Hospital", "amenity": "hospital", "water": null, "natural": null }, "geometry": { "type": "Point", "coordinates": [ 77.408962, 23.303004 ] } },
{ "type": "Feature", "properties": { "element": "node", "id": 7288793872, "name": "Sarvottam Hospital", "amenity": "hospital", "water": null, "natural": null }, "geometry": { "type": "Point", "coordinates": [ 77.372502, 23.277597 ] } },
{ "type": "Feature", "properties": { "element": "node", "id": 7288793874, "name": "Jeevan Shree Hospital", "amenity": "hospital", "water": null, "natural": null }, "geometry": { "type": "Point", "coordinates": [ 77.408823, 23.302911 ] } },
{ "type": "Feature", "properties": { "element": "node", "id": 7288793881, "name": "Max Hospital", "amenity": "hospital", "water": null, "natural": null }, "geometry": { "type": "Point", "coordinates": [ 77.4147566, 23.2920061 ] } },
{ "type": "Feature", "properties": { "element": "node", "id": 7288793884, "name": "Sparsh Med care Hospital", "amenity": "hospital", "water": null, "natural": null }, "geometry": { "type": "Point", "coordinates": [ 77.403413, 23.282081 ] } },
{ "type": "Feature", "properties": { "element": "node", "id": 7288793889, "name": "ArogyaNidhi Hospital", "amenity": "hospital", "water": null, "natural": null }, "geometry": { "type": "Point", "coordinates": [ 77.399598, 23.348469 ] } },
{ "type": "Feature", "properties": { "element": "node", "id": 7288793893, "name": "Somnath Hospital", "amenity": "hospital", "water": null, "natural": null }, "geometry": { "type": "Point", "coordinates": [ 77.3450567, 23.2958957 ] } },
{ "type": "Feature", "properties": { "element": "node", "id": 7288957721, "name": "Care Hospital", "amenity": "hospital", "water": null, "natural": null }, "geometry": { "type": "Point", "coordinates": [ 77.2258103, 23.6715372 ] } },
{ "type": "Feature", "properties": { "element": "node", "id": 7518423119, "name": "Sanjivani Hospital", "amenity": "hospital", "water": null, "natural": null }, "geometry": { "type": "Point", "coordinates": [ 77.3999805, 23.3630531 ] } },
{ "type": "Feature", "properties": { "element": "node", "id": 7518423169, "name": "Sudama Hospital", "amenity": "hospital", "water": null, "natural": null }, "geometry": { "type": "Point", "coordinates": [ 77.401389, 23.3664024 ] } },
{ "type": "Feature", "properties": { "element": "node", "id": 7518423232, "name": "Dev Shree Hospital", "amenity": "hospital", "water": null, "natural": null }, "geometry": { "type": "Point", "coordinates": [ 77.4235648, 23.6253793 ] } },
{ "type": "Feature", "properties": { "element": "node", "id": 8137094030, "name": "SK dubey hospital", "amenity": "hospital", "water": null, "natural": null }, "geometry": { "type": "Point", "coordinates": [ 77.4357149, 23.2095734 ] } },
{ "type": "Feature", "properties": { "element": "node", "id": 8137094051, "name": "raka medical", "amenity": "hospital", "water": null, "natural": null }, "geometry": { "type": "Point", "coordinates": [ 77.428498, 23.2183639 ] } },
{ "type": "Feature", "properties": { "element": "node", "id": 8380545853, "name": null, "amenity": "college", "water": null, "natural": null }, "geometry": { "type": "Point", "coordinates": [ 77.5106529, 23.2568467 ] } },
{ "type": "Feature", "properties": { "element": "node", "id": 8380545854, "name": null, "amenity": "college", "water": null, "natural": null }, "geometry": { "type": "Point", "coordinates": [ 77.5026003, 23.2481173 ] } },
{ "type": "Feature", "properties": { "element": "node", "id": 8380545855, "name": null, "amenity": "college", "water": null, "natural": null }, "geometry": { "type": "Point", "coordinates": [ 77.5053352, 23.2594925 ] } },
{ "type": "Feature", "properties": { "element": "node", "id": 8380545856, "name": null, "amenity": "college", "water": null, "natural": null }, "geometry": { "type": "Point", "coordinates": [ 77.5011208, 23.2571134 ] } },
{ "type": "Feature", "properties": { "element": "node", "id": 8831186870, "name": "St. Thomas Convent Sr. Sec  School", "amenity": "school", "water": null, "natural": null }, "geometry": { "type": "Point", "coordinates": [ 77.4669803, 23.2817763 ] } },
{ "type": "Feature", "properties": { "element": "node", "id": 8892180855, "name": "ITI", "amenity": "school", "water": null, "natural": null }, "geometry": { "type": "Point", "coordinates": [ 77.4501109, 23.2529804 ] } },
{ "type": "Feature", "properties": { "element": "node", "id": 8909898721, "name": "Maharishi Vidya Mandir", "amenity": "school", "water": null, "natural": null }, "geometry": { "type": "Point", "coordinates": [ 77.4718515, 23.2755913 ] } },
{ "type": "Feature", "properties": { "element": "node", "id": 8909898729, "name": "Bnak Officers Public School", "amenity": "school", "water": null, "natural": null }, "geometry": { "type": "Point", "coordinates": [ 77.4695448, 23.269856 ] } },
{ "type": "Feature", "properties": { "element": "node", "id": 9103869480, "name": "Modi Hospital", "amenity": "hospital", "water": null, "natural": null }, "geometry": { "type": "Point", "coordinates": [ 77.4561599, 23.2759059 ] } },
{ "type": "Feature", "properties": { "element": "node", "id": 9889725284, "name": "Hind Spine Clinic", "amenity": "clinic", "water": null, "natural": null }, "geometry": { "type": "Point", "coordinates": [ 77.4315482, 23.2104222 ] } },
{ "type": "Feature", "properties": { "element": "node", "id": 9948715933, "name": "National Institute Of Fashion Technology", "amenity": "college", "water": null, "natural": null }, "geometry": { "type": "Point", "coordinates": [ 77.2814901, 23.2844639 ] } },
{ "type": "Feature", "properties": { "element": "node", "id": 11002939999, "name": "CIVIL HOSPITAL", "amenity": "hospital", "water": null, "natural": null }, "geometry": { "type": "Point", "coordinates": [ 77.4094808, 23.2564166 ] } },
{ "type": "Feature", "properties": { "element": "node", "id": 11027095428, "name": "Scope Global Skills University", "amenity": "university", "water": null, "natural": null }, "geometry": { "type": "Point", "coordinates": [ 77.4792392, 23.1536966 ] } },
{ "type": "Feature", "properties": { "element": "node", "id": 11763334804, "name": "Siddharth Homeopathic Clinic", "amenity": "clinic", "water": null, "natural": null }, "geometry": { "type": "Point", "coordinates": [ 77.4568483, 23.1806052 ] } },
{ "type": "Feature", "properties": { "element": "node", "id": 12031188661, "name": "St. George Sr. Sec. School", "amenity": "school", "water": null, "natural": null }, "geometry": { "type": "Point", "coordinates": [ 77.4158811, 23.3113833 ] } },
{ "type": "Feature", "properties": { "element": "node", "id": 12595778138, "name": "Rajni Health Care hospital", "amenity": "hospital", "water": null, "natural": null }, "geometry": { "type": "Point", "coordinates": [ 77.4681819, 23.2682641 ] } },
{ "type": "Feature", "properties": { "element": "node", "id": 12595778140, "name": "Smile Spectrum : Dental, Hair And Aestheic clinic", "amenity": "hospital", "water": null, "natural": null }, "geometry": { "type": "Point", "coordinates": [ 77.4681117, 23.2682177 ] } },
{ "type": "Feature", "properties": { "element": "node", "id": 12595778142, "name": "Daisy dale public school(MP board)", "amenity": "school", "water": null, "natural": null }, "geometry": { "type": "Point", "coordinates": [ 77.4693769, 23.267144 ] } },
{ "type": "Feature", "properties": { "element": "node", "id": 12595778143, "name": "Shree Balaji Multispecialty Hospital", "amenity": "hospital", "water": null, "natural": null }, "geometry": { "type": "Point", "coordinates": [ 77.4701843, 23.2663724 ] } },
{ "type": "Feature", "properties": { "element": "node", "id": 12595799537, "name": "Ma Pitamabara Multispeciality Hospital", "amenity": "hospital", "water": null, "natural": null }, "geometry": { "type": "Point", "coordinates": [ 77.466704, 23.2674239 ] } },
{ "type": "Feature", "properties": { "element": "node", "id": 12595799541, "name": "Janak Clinic and Care", "amenity": "hospital", "water": null, "natural": null }, "geometry": { "type": "Point", "coordinates": [ 77.4675993, 23.268336 ] } },
{ "type": "Feature", "properties": { "element": "node", "id": 12595897433, "name": null, "amenity": "school", "water": null, "natural": null }, "geometry": { "type": "Point", "coordinates": [ 77.4655699, 23.2672943 ] } },
{ "type": "Feature", "properties": { "element": "node", "id": 12595897434, "name": "bonnie foi", "amenity": "college", "water": null, "natural": null }, "geometry": { "type": "Point", "coordinates": [ 77.4656686, 23.2670775 ] } },
{ "type": "Feature", "properties": { "element": "node", "id": 12595897448, "name": "Dolphin Children Hospital", "amenity": "hospital", "water": null, "natural": null }, "geometry": { "type": "Point", "coordinates": [ 77.4645223, 23.2634245 ] } },
{ "type": "Feature", "properties": { "element": "node", "id": 12595975433, "name": "Dr Rakesh Singh Jagat", "amenity": "hospital", "water": null, "natural": null }, "geometry": { "type": "Point", "coordinates": [ 77.4684872, 23.253215 ] } },
{ "type": "Feature", "properties": { "element": "node", "id": 12595975438, "name": "Jai Multispeciality Clinic", "amenity": "hospital", "water": null, "natural": null }, "geometry": { "type": "Point", "coordinates": [ 77.4719325, 23.2533157 ] } },
{ "type": "Feature", "properties": { "element": "node", "id": 12595975439, "name": "N ED MERIT SCHOOL", "amenity": "school", "water": null, "natural": null }, "geometry": { "type": "Point", "coordinates": [ 77.4718488, 23.253982 ] } },
{ "type": "Feature", "properties": { "element": "node", "id": 12595975454, "name": "Jawaharlal Nehru School (PW)", "amenity": "school", "water": null, "natural": null }, "geometry": { "type": "Point", "coordinates": [ 77.4479163, 23.24307 ] } },
{ "type": "Feature", "properties": { "element": "node", "id": 12595975455, "name": "Jawharlal Nehru School", "amenity": "school", "water": null, "natural": null }, "geometry": { "type": "Point", "coordinates": [ 77.4452985, 23.2247705 ] } },
{ "type": "Feature", "properties": { "element": "node", "id": 12595975465, "name": "Kendriya Vidyalaya", "amenity": "school", "water": null, "natural": null }, "geometry": { "type": "Point", "coordinates": [ 77.4333886, 23.2233462 ] } },
{ "type": "Feature", "properties": { "element": "node", "id": 12595975467, "name": "Vikram Higher Secondary school", "amenity": "school", "water": null, "natural": null }, "geometry": { "type": "Point", "coordinates": [ 77.4733567, 23.2399947 ] } },
{ "type": "Feature", "properties": { "element": "node", "id": 12595975469, "name": null, "amenity": "hospital", "water": null, "natural": null }, "geometry": { "type": "Point", "coordinates": [ 77.4725074, 23.2453734 ] } },
{ "type": "Feature", "properties": { "element": "node", "id": 12595975470, "name": "Shri Satya Sai Higher Secondary School", "amenity": "school", "water": null, "natural": null }, "geometry": { "type": "Point", "coordinates": [ 77.4731765, 23.245701 ] } },
{ "type": "Feature", "properties": { "element": "node", "id": 12595975471, "name": "Dav School", "amenity": "school", "water": null, "natural": null }, "geometry": { "type": "Point", "coordinates": [ 77.4722679, 23.2458646 ] } },
{ "type": "Feature", "properties": { "element": "node", "id": 12647698986, "name": "Health Centre", "amenity": "hospital", "water": null, "natural": null }, "geometry": { "type": "Point", "coordinates": [ 77.3652899, 23.1874259 ] } },
{ "type": "Feature", "properties": { "element": "node", "id": 12920707885, "name": "Ronak Hospital", "amenity": "hospital", "water": null, "natural": null }, "geometry": { "type": "Point", "coordinates": [ 77.3922073, 23.2145808 ] } },
{ "type": "Feature", "properties": { "element": "node", "id": 13069168102, "name": "Sage university", "amenity": "university", "water": null, "natural": null }, "geometry": { "type": "Point", "coordinates": [ 77.5093242, 23.1586577 ] } },
{ "type": "Feature", "properties": { "element": "node", "id": 13069237603, "name": "Sage bhopal", "amenity": "university", "water": null, "natural": null }, "geometry": { "type": "Point", "coordinates": [ 77.5237672, 23.1838672 ] } },
{ "type": "Feature", "properties": { "element": "node", "id": 13204625025, "name": "Krishna Kids Clinic", "amenity": "doctors", "water": null, "natural": null }, "geometry": { "type": "Point", "coordinates": [ 77.4705185, 23.2692928 ] } },
{ "type": "Feature", "properties": { "element": "relation", "id": 1574779, "name": null, "amenity": null, "water": "reservoir", "natural": "water" }, "geometry": { "type": "Polygon", "coordinates": [ [ [ 77.5150681, 23.6629212 ], [ 77.5136948, 23.6632357 ], [ 77.5121498, 23.6615062 ], [ 77.5118065, 23.6602483 ], [ 77.5121498, 23.6599339 ], [ 77.5112915, 23.6588332 ], [ 77.5100899, 23.6593049 ], [ 77.5109482, 23.6594622 ], [ 77.5111198, 23.6599339 ], [ 77.5102615, 23.6600911 ], [ 77.5092316, 23.6610345 ], [ 77.5085449, 23.6610345 ], [ 77.5080299, 23.6605628 ], [ 77.5076866, 23.6589905 ], [ 77.5087166, 23.6564747 ], [ 77.5094032, 23.6558458 ], [ 77.5090599, 23.6539589 ], [ 77.5085449, 23.6534872 ], [ 77.5066566, 23.6564747 ], [ 77.5066566, 23.6574181 ], [ 77.5061417, 23.6578898 ], [ 77.5051117, 23.6566319 ], [ 77.5039101, 23.6561602 ], [ 77.5042534, 23.6542734 ], [ 77.5030518, 23.6547451 ], [ 77.5025368, 23.6542734 ], [ 77.5025368, 23.6533299 ], [ 77.5020218, 23.6528582 ], [ 77.5018501, 23.6539589 ], [ 77.5018501, 23.6545879 ], [ 77.5032234, 23.6555313 ], [ 77.5021935, 23.6555313 ], [ 77.5020218, 23.6550596 ], [ 77.5015068, 23.6552168 ], [ 77.5028801, 23.6577326 ], [ 77.5028801, 23.6583615 ], [ 77.5023651, 23.6588332 ], [ 77.5016785, 23.6582043 ], [ 77.5011635, 23.658676 ], [ 77.5015068, 23.6589905 ], [ 77.5013351, 23.6594622 ], [ 77.5003052, 23.6591477 ], [ 77.4997902, 23.6599339 ], [ 77.5001335, 23.6615062 ], [ 77.5008202, 23.6621351 ], [ 77.5008202, 23.662764 ], [ 77.5001335, 23.6637074 ], [ 77.4997902, 23.6671663 ], [ 77.4979019, 23.667638 ], [ 77.4968719, 23.6692102 ], [ 77.4965286, 23.667638 ], [ 77.4954987, 23.6679524 ], [ 77.4951553, 23.6673236 ], [ 77.494812, 23.6673236 ], [ 77.4936104, 23.6687386 ], [ 77.494812, 23.6685813 ], [ 77.4954987, 23.6688958 ], [ 77.495327, 23.6696819 ], [ 77.4956703, 23.6703108 ], [ 77.4946404, 23.6706252 ], [ 77.4951553, 23.6710969 ], [ 77.4968719, 23.6710969 ], [ 77.4970436, 23.6715685 ], [ 77.4961853, 23.6723546 ], [ 77.4954987, 23.6720402 ], [ 77.4944687, 23.6723546 ], [ 77.493782, 23.6720402 ], [ 77.4932671, 23.6721974 ], [ 77.4944687, 23.6729835 ], [ 77.4951553, 23.6729835 ], [ 77.495842, 23.6736123 ], [ 77.4965286, 23.6736123 ], [ 77.4975586, 23.6729835 ], [ 77.4987602, 23.6750273 ], [ 77.4989319, 23.6767566 ], [ 77.5001335, 23.6765994 ], [ 77.5003052, 23.6761278 ], [ 77.5009918, 23.6761278 ], [ 77.5015068, 23.6772282 ], [ 77.5011635, 23.6775427 ], [ 77.5037384, 23.6799008 ], [ 77.5047684, 23.6805296 ], [ 77.506485, 23.6802152 ], [ 77.5085449, 23.6795864 ], [ 77.5095749, 23.6789576 ], [ 77.5106049, 23.6789576 ], [ 77.5114632, 23.6781715 ], [ 77.5118065, 23.676285 ], [ 77.5131798, 23.6737695 ], [ 77.5135231, 23.6718829 ], [ 77.5145531, 23.6699963 ], [ 77.5145531, 23.6693674 ], [ 77.5152397, 23.6684241 ], [ 77.5152397, 23.6674808 ], [ 77.5159264, 23.6665374 ], [ 77.516613, 23.6643363 ], [ 77.5150681, 23.6629212 ] ], [ [ 77.5045967, 23.6615062 ], [ 77.5045967, 23.6611917 ], [ 77.5052834, 23.6611917 ], [ 77.5047684, 23.6616634 ], [ 77.5045967, 23.6615062 ] ] ] } },
{ "type": "Feature", "properties": { "element": "relation", "id": 1598645, "name": null, "amenity": null, "water": "reservoir", "natural": "water" }, "geometry": { "type": "Polygon", "coordinates": [ [ [ 77.513665, 23.4622297 ], [ 77.512635, 23.4631745 ], [ 77.5109184, 23.4638043 ], [ 77.5100601, 23.463017 ], [ 77.5107467, 23.4611274 ], [ 77.5097168, 23.4604975 ], [ 77.5100601, 23.4592377 ], [ 77.5088585, 23.4587653 ], [ 77.5071419, 23.4600251 ], [ 77.5066269, 23.4586078 ], [ 77.5062835, 23.4582929 ], [ 77.5062835, 23.457348 ], [ 77.5049103, 23.4560882 ], [ 77.5049103, 23.4554583 ], [ 77.5045669, 23.4551434 ], [ 77.5049103, 23.4532536 ], [ 77.5042236, 23.4526237 ], [ 77.5042236, 23.449474 ], [ 77.5045669, 23.4485291 ], [ 77.5052536, 23.4478992 ], [ 77.5050819, 23.4471118 ], [ 77.5045669, 23.4469543 ], [ 77.5049103, 23.4450644 ], [ 77.5038803, 23.4441195 ], [ 77.5042236, 23.4431745 ], [ 77.5040519, 23.4427021 ], [ 77.503022, 23.4420721 ], [ 77.5023353, 23.4420721 ], [ 77.501992, 23.4423871 ], [ 77.501477, 23.4419146 ], [ 77.5023353, 23.4411271 ], [ 77.5043953, 23.4411271 ], [ 77.5054252, 23.4404971 ], [ 77.5061119, 23.4404971 ], [ 77.5064552, 23.4408121 ], [ 77.5069702, 23.4403397 ], [ 77.5067985, 23.4395522 ], [ 77.5062835, 23.4393947 ], [ 77.5066269, 23.4390797 ], [ 77.5066269, 23.4381347 ], [ 77.5059402, 23.4390797 ], [ 77.5050819, 23.4401822 ], [ 77.5047386, 23.4389222 ], [ 77.5040519, 23.4398672 ], [ 77.5033653, 23.4398672 ], [ 77.5018204, 23.4384497 ], [ 77.501992, 23.4370322 ], [ 77.500962, 23.4373472 ], [ 77.5004471, 23.4368747 ], [ 77.5007904, 23.4359297 ], [ 77.5001037, 23.4349847 ], [ 77.5007904, 23.4337247 ], [ 77.4999321, 23.4338822 ], [ 77.4994171, 23.4334097 ], [ 77.4990738, 23.4318346 ], [ 77.4983871, 23.4312046 ], [ 77.4983871, 23.4305746 ], [ 77.4975288, 23.4301021 ], [ 77.4980438, 23.4321497 ], [ 77.4977005, 23.4324647 ], [ 77.4977005, 23.4330947 ], [ 77.4987304, 23.4340397 ], [ 77.4980438, 23.4349847 ], [ 77.4983871, 23.4359297 ], [ 77.4990738, 23.4371897 ], [ 77.4997604, 23.4378197 ], [ 77.5001037, 23.4393947 ], [ 77.4985588, 23.4395522 ], [ 77.4978721, 23.4392372 ], [ 77.4968422, 23.4398672 ], [ 77.4977005, 23.4368747 ], [ 77.4966705, 23.4362447 ], [ 77.4970138, 23.4356147 ], [ 77.4966705, 23.4352997 ], [ 77.4966705, 23.4340397 ], [ 77.4958122, 23.4338822 ], [ 77.4952972, 23.4334097 ], [ 77.4952972, 23.4327797 ], [ 77.4959839, 23.4321497 ], [ 77.4947822, 23.4316771 ], [ 77.4942673, 23.4312046 ], [ 77.4932373, 23.4296296 ], [ 77.4932373, 23.4289995 ], [ 77.4939239, 23.4283695 ], [ 77.4922073, 23.4274244 ], [ 77.4922073, 23.4267944 ], [ 77.4935806, 23.4252193 ], [ 77.4935806, 23.4242742 ], [ 77.4939239, 23.4239591 ], [ 77.492379, 23.4228565 ], [ 77.4925506, 23.4245892 ], [ 77.4910057, 23.4260068 ], [ 77.4904907, 23.4242742 ], [ 77.4911773, 23.4233291 ], [ 77.490834, 23.4214389 ], [ 77.490319, 23.4209663 ], [ 77.4879158, 23.4200212 ], [ 77.4865425, 23.4203363 ], [ 77.4837959, 23.4197062 ], [ 77.4834526, 23.4193911 ], [ 77.4824226, 23.4193911 ], [ 77.481736, 23.4187611 ], [ 77.4810493, 23.4187611 ], [ 77.480706, 23.418446 ], [ 77.4803627, 23.4187611 ], [ 77.479676, 23.4187611 ], [ 77.4772728, 23.4168708 ], [ 77.4765861, 23.4168708 ], [ 77.479161, 23.4189186 ], [ 77.4781311, 23.4192336 ], [ 77.4786461, 23.4197062 ], [ 77.4800194, 23.4200212 ], [ 77.480706, 23.4200212 ], [ 77.4813926, 23.4206513 ], [ 77.4824226, 23.4203363 ], [ 77.4837959, 23.4209663 ], [ 77.4844826, 23.4209663 ], [ 77.4870575, 23.4233291 ], [ 77.4877441, 23.4255343 ], [ 77.4872291, 23.4260068 ], [ 77.4863708, 23.4261643 ], [ 77.4868858, 23.4266369 ], [ 77.4875725, 23.4266369 ], [ 77.4884308, 23.4271094 ], [ 77.4872291, 23.4272669 ], [ 77.4867141, 23.4277394 ], [ 77.4870575, 23.4280545 ], [ 77.4863708, 23.4289995 ], [ 77.4872291, 23.428527 ], [ 77.4879158, 23.428527 ], [ 77.4884308, 23.4289995 ], [ 77.4887741, 23.4308896 ], [ 77.4901474, 23.4318346 ], [ 77.4901474, 23.4334097 ], [ 77.4925506, 23.4346697 ], [ 77.4925506, 23.4368747 ], [ 77.4915207, 23.4384497 ], [ 77.4915207, 23.4393947 ], [ 77.4910057, 23.4395522 ], [ 77.490834, 23.4384497 ], [ 77.4901474, 23.4375047 ], [ 77.4904907, 23.4371897 ], [ 77.490319, 23.4367172 ], [ 77.4892891, 23.4367172 ], [ 77.4872291, 23.4351422 ], [ 77.4860275, 23.4352997 ], [ 77.4872291, 23.4367172 ], [ 77.4884308, 23.4375047 ], [ 77.4880874, 23.4397097 ], [ 77.4887741, 23.4403397 ], [ 77.4891174, 23.4428595 ], [ 77.4879158, 23.443647 ], [ 77.4863708, 23.4425446 ], [ 77.4863708, 23.4419146 ], [ 77.4855125, 23.4411271 ], [ 77.4849975, 23.4412846 ], [ 77.4849975, 23.4422296 ], [ 77.4841392, 23.443017 ], [ 77.4836242, 23.4425446 ], [ 77.4832809, 23.4403397 ], [ 77.4819076, 23.4393947 ], [ 77.4810493, 23.4382922 ], [ 77.4793327, 23.4373472 ], [ 77.4808777, 23.4397097 ], [ 77.4808777, 23.4406546 ], [ 77.4819076, 23.4415996 ], [ 77.4808777, 23.4428595 ], [ 77.4832809, 23.4444345 ], [ 77.4832809, 23.4450644 ], [ 77.4827659, 23.4455369 ], [ 77.480706, 23.4449069 ], [ 77.4800194, 23.4449069 ], [ 77.4789894, 23.444277 ], [ 77.4783027, 23.4445919 ], [ 77.4776161, 23.443647 ], [ 77.4762428, 23.443962 ], [ 77.4757278, 23.4434895 ], [ 77.4755562, 23.4423871 ], [ 77.4736679, 23.4434895 ], [ 77.4731529, 23.444277 ], [ 77.4714363, 23.444277 ], [ 77.471093, 23.443962 ], [ 77.4707496, 23.444277 ], [ 77.470063, 23.444277 ], [ 77.470578, 23.4428595 ], [ 77.4702347, 23.4412846 ], [ 77.470578, 23.4409696 ], [ 77.470578, 23.4403397 ], [ 77.470063, 23.4395522 ], [ 77.4686897, 23.4398672 ], [ 77.4676597, 23.4389222 ], [ 77.4668014, 23.4397097 ], [ 77.4673164, 23.4404971 ], [ 77.469033, 23.4411271 ], [ 77.4693764, 23.4408121 ], [ 77.469548, 23.4409696 ], [ 77.4692047, 23.4419146 ], [ 77.4686897, 23.4427021 ], [ 77.4680031, 23.4414421 ], [ 77.4674881, 23.4415996 ], [ 77.4671448, 23.4422296 ], [ 77.4671448, 23.4438045 ], [ 77.4697197, 23.4449069 ], [ 77.4704063, 23.4458519 ], [ 77.4731529, 23.4455369 ], [ 77.4740112, 23.4460094 ], [ 77.4734962, 23.4474267 ], [ 77.4707496, 23.4474267 ], [ 77.4686897, 23.4455369 ], [ 77.4678314, 23.4456944 ], [ 77.4698913, 23.4472693 ], [ 77.4693764, 23.4477417 ], [ 77.468518, 23.4478992 ], [ 77.471093, 23.4496315 ], [ 77.4721229, 23.4486866 ], [ 77.4731529, 23.4490016 ], [ 77.4738395, 23.4486866 ], [ 77.4740112, 23.449789 ], [ 77.4745262, 23.4499465 ], [ 77.4755562, 23.4490016 ], [ 77.4765861, 23.4490016 ], [ 77.4777878, 23.449789 ], [ 77.4774444, 23.450104 ], [ 77.4776161, 23.4508914 ], [ 77.4793327, 23.4499465 ], [ 77.4798477, 23.450419 ], [ 77.4795044, 23.4507339 ], [ 77.4805343, 23.4516788 ], [ 77.4813926, 23.4530961 ], [ 77.4824226, 23.4534111 ], [ 77.4827659, 23.4530961 ], [ 77.4837959, 23.454041 ], [ 77.4851692, 23.454356 ], [ 77.4868858, 23.454356 ], [ 77.4882591, 23.4546709 ], [ 77.4887741, 23.4551434 ], [ 77.4867141, 23.457348 ], [ 77.4856842, 23.4586078 ], [ 77.4856842, 23.4592377 ], [ 77.4853409, 23.4595527 ], [ 77.4853409, 23.4620722 ], [ 77.4860275, 23.4627021 ], [ 77.4860275, 23.4633319 ], [ 77.4849975, 23.4655365 ], [ 77.4849975, 23.467426 ], [ 77.4867141, 23.4683708 ], [ 77.4867141, 23.4699454 ], [ 77.4837959, 23.4710476 ], [ 77.4831093, 23.4701029 ], [ 77.4824226, 23.4701029 ], [ 77.481736, 23.4707327 ], [ 77.4803627, 23.4691581 ], [ 77.4808777, 23.4705752 ], [ 77.4803627, 23.4713625 ], [ 77.4769295, 23.4726222 ], [ 77.4762428, 23.473252 ], [ 77.4748695, 23.4735669 ], [ 77.4736679, 23.4727797 ], [ 77.4740112, 23.4705752 ], [ 77.4728096, 23.4704178 ], [ 77.4724663, 23.4701029 ], [ 77.4722946, 23.4721498 ], [ 77.4709213, 23.4737244 ], [ 77.4734962, 23.4751415 ], [ 77.4752128, 23.4751415 ], [ 77.4757278, 23.4759287 ], [ 77.4745262, 23.4764011 ], [ 77.4741829, 23.4760862 ], [ 77.4717796, 23.4760862 ], [ 77.4704063, 23.4754564 ], [ 77.4697197, 23.4754564 ], [ 77.469548, 23.4765586 ], [ 77.468518, 23.4775033 ], [ 77.4693764, 23.4779756 ], [ 77.470063, 23.4773458 ], [ 77.471093, 23.4770309 ], [ 77.4721229, 23.4779756 ], [ 77.4728096, 23.4776607 ], [ 77.4753845, 23.4803373 ], [ 77.4753845, 23.4815969 ], [ 77.4734962, 23.4836437 ], [ 77.4719513, 23.4844309 ], [ 77.4716079, 23.4860053 ], [ 77.4702347, 23.48695 ], [ 77.4702347, 23.4875797 ], [ 77.4686897, 23.4889966 ], [ 77.4680031, 23.4889966 ], [ 77.4668014, 23.4897837 ], [ 77.4661148, 23.4913581 ], [ 77.4655998, 23.4918304 ], [ 77.4645698, 23.4915155 ], [ 77.4640548, 23.491673 ], [ 77.4637115, 23.4926176 ], [ 77.4643982, 23.4935622 ], [ 77.4635399, 23.4943493 ], [ 77.46045, 23.494979 ], [ 77.45942, 23.4940345 ], [ 77.4587333, 23.4943493 ], [ 77.4582184, 23.4926176 ], [ 77.4573601, 23.4918304 ], [ 77.4571884, 23.4932473 ], [ 77.4575317, 23.493877 ], [ 77.4565017, 23.4945067 ], [ 77.4565017, 23.4951365 ], [ 77.4549568, 23.4968682 ], [ 77.4537552, 23.4970256 ], [ 77.4540985, 23.498285 ], [ 77.4570167, 23.4965533 ], [ 77.4580467, 23.4965533 ], [ 77.458905, 23.4973405 ], [ 77.4571884, 23.4992296 ], [ 77.4577034, 23.5000167 ], [ 77.4590767, 23.4990722 ], [ 77.4607933, 23.4997018 ], [ 77.4618233, 23.4997018 ], [ 77.4628532, 23.4987573 ], [ 77.4635399, 23.4987573 ], [ 77.4637115, 23.5011187 ], [ 77.4649132, 23.5006464 ], [ 77.4666298, 23.5009612 ], [ 77.4671448, 23.5014335 ], [ 77.4668014, 23.5020632 ], [ 77.4669731, 23.5028503 ], [ 77.4681747, 23.5014335 ], [ 77.4668014, 23.5001741 ], [ 77.4668014, 23.4998593 ], [ 77.4683464, 23.4987573 ], [ 77.4697197, 23.4997018 ], [ 77.4704063, 23.4997018 ], [ 77.4728096, 23.4987573 ], [ 77.4734962, 23.4990722 ], [ 77.4741829, 23.4984424 ], [ 77.4752128, 23.4984424 ], [ 77.4783027, 23.4959236 ], [ 77.4800194, 23.4968682 ], [ 77.481736, 23.4965533 ], [ 77.4820793, 23.4968682 ], [ 77.4824226, 23.4965533 ], [ 77.4844826, 23.4962385 ], [ 77.4853409, 23.4957662 ], [ 77.4858558, 23.4946642 ], [ 77.4868858, 23.4940345 ], [ 77.4875725, 23.4940345 ], [ 77.4880874, 23.4935622 ], [ 77.4880874, 23.4926176 ], [ 77.4896324, 23.4915155 ], [ 77.4910057, 23.4915155 ], [ 77.4932373, 23.493877 ], [ 77.492894, 23.496081 ], [ 77.4932373, 23.4963959 ], [ 77.4925506, 23.4970256 ], [ 77.4925506, 23.4976553 ], [ 77.4934089, 23.4981276 ], [ 77.4944389, 23.4978127 ], [ 77.4951256, 23.4978127 ], [ 77.4968422, 23.4965533 ], [ 77.4975288, 23.4962385 ], [ 77.4982155, 23.4962385 ], [ 77.4992454, 23.4956088 ], [ 77.5006187, 23.4956088 ], [ 77.501992, 23.4962385 ], [ 77.5026787, 23.4962385 ], [ 77.5038803, 23.4970256 ], [ 77.5049103, 23.4998593 ], [ 77.5055969, 23.500489 ], [ 77.5055969, 23.5011187 ], [ 77.5062835, 23.5020632 ], [ 77.5062835, 23.5026929 ], [ 77.5069702, 23.5033226 ], [ 77.5076568, 23.5048967 ], [ 77.5086868, 23.5058413 ], [ 77.5083435, 23.5067858 ], [ 77.5090301, 23.5080451 ], [ 77.5090301, 23.5096192 ], [ 77.5086868, 23.5102489 ], [ 77.5071419, 23.5119804 ], [ 77.5061119, 23.5119804 ], [ 77.5057686, 23.5122952 ], [ 77.5043953, 23.5119804 ], [ 77.503022, 23.5113507 ], [ 77.5023353, 23.5113507 ], [ 77.501992, 23.5110359 ], [ 77.500962, 23.5110359 ], [ 77.4990738, 23.509934 ], [ 77.4987304, 23.5067858 ], [ 77.4982155, 23.5063135 ], [ 77.4961555, 23.5063135 ], [ 77.4946106, 23.5083599 ], [ 77.4946106, 23.5089896 ], [ 77.4937523, 23.5094618 ], [ 77.4920357, 23.5097766 ], [ 77.491349, 23.5094618 ], [ 77.4904907, 23.5115081 ], [ 77.4901474, 23.5121378 ], [ 77.490834, 23.513397 ], [ 77.490834, 23.5146563 ], [ 77.4891174, 23.5165452 ], [ 77.4899757, 23.5173322 ], [ 77.490319, 23.5170174 ], [ 77.4904907, 23.5171748 ], [ 77.4911773, 23.518434 ], [ 77.490834, 23.5193784 ], [ 77.4889457, 23.5198506 ], [ 77.4886024, 23.5201654 ], [ 77.4872291, 23.5189062 ], [ 77.4865425, 23.5189062 ], [ 77.4861992, 23.5185914 ], [ 77.4856842, 23.5190636 ], [ 77.4861992, 23.5195358 ], [ 77.4868858, 23.5195358 ], [ 77.4877441, 23.5206376 ], [ 77.4861992, 23.522369 ], [ 77.4853409, 23.521582 ], [ 77.4863708, 23.5206376 ], [ 77.4861992, 23.5198506 ], [ 77.4849975, 23.5203228 ], [ 77.4848259, 23.5217394 ], [ 77.4831093, 23.5204802 ], [ 77.481736, 23.5204802 ], [ 77.481221, 23.5209524 ], [ 77.4820793, 23.5220542 ], [ 77.4819076, 2