{
"type": "FeatureCollection",
"name": "Raipur_resources",
"crs": { "type": "name", "properties": { "name": "urn:ogc:def:crs:OGC:1.3:CRS84" } },
"features": [
{ "type": "Feature", "properties": { "element": "node", "id": 3774564938, "name": "bagri nursing home", "amenity": "hospital", "water": null, "natural": null }, "geometry": { "type": "Point", "coordinates": [ 81.6232005, 21.2414376 ] } },
{ "type": "Feature", "properties": { "element": "node", "id": 4445064650, "name": "पंडित रवि शंकर शुकला विश्वविघालय", "amenity": "university", "water": null, "natural": null }, "geometry": { "type": "Point", "coordinates": [ 81.5974324, 21.2468638 ] } },
{ "type": "Feature", "properties": { "element": "node", "id": 4445076254, "name": "Ayush and health sciences university", "amenity": "university", "water": null, "natural": null }, "geometry": { "type": "Point", "coordinates": [ 81.6049336, 21.2460926 ] } },
{ "type": "Feature", "properties": { "element": "node", "id": 4445082568, "name": "Raipur institute of technology", "amenity": "university", "water": null, "natural": null }, "geometry": { "type": "Point", "coordinates": [ 81.8010569, 21.2262243 ] } },
{ "type": "Feature", "properties": { "element": "node", "id": 4445093791, "name": "Kushabhau Thakre Patrakarita", "amenity": "university", "water": null, "natural": null }, "geometry": { "type": "Point", "coordinates": [ 81.6244115, 21.1721095 ] } },
{ "type": "Feature", "properties": { "element": "node", "id": 4445104811, "name": "Ramkrishna Care Hospital", "amenity": "hospital", "water": null, "natural": null }, "geometry": { "type": "Point", "coordinates": [ 81.6537238, 21.2130814 ] } },
{ "type": "Feature", "properties": { "element": "node", "id": 4445112827, "name": "Narayana Hrudayalaya Mmi Hospital (Managed By Narayana Hrudayalaya Pvt Ltd - Bangalore) - Raipur", "amenity": "hospital", "water": null, "natural": null }, "geometry": { "type": "Point", "coordinates": [ 81.657736, 21.2132613 ] } },
{ "type": "Feature", "properties": { "element": "node", "id": 4445113471, "name": "Suyash Superspeciality Hospital", "amenity": "hospital", "water": null, "natural": null }, "geometry": { "type": "Point", "coordinates": [ 81.6060273, 21.2584938 ] } },
{ "type": "Feature", "properties": { "element": "node", "id": 4445117924, "name": "Krishna Public School", "amenity": "school", "water": null, "natural": null }, "geometry": { "type": "Point", "coordinates": [ 81.6635818, 21.1943876 ] } },
{ "type": "Feature", "properties": { "element": "node", "id": 4445119946, "name": "Shri Ganesh Vinayak Eye Hospital", "amenity": "hospital", "water": null, "natural": null }, "geometry": { "type": "Point", "coordinates": [ 81.6561777, 21.2131689 ] } },
{ "type": "Feature", "properties": { "element": "node", "id": 4445120486, "name": "Holy Heartseducational academy", "amenity": "school", "water": null, "natural": null }, "geometry": { "type": "Point", "coordinates": [ 81.6480843, 21.2374171 ] } },
{ "type": "Feature", "properties": { "element": "node", "id": 4445126014, "name": "Mayoor school", "amenity": "school", "water": null, "natural": null }, "geometry": { "type": "Point", "coordinates": [ 81.6495081, 21.2349537 ] } },
{ "type": "Feature", "properties": { "element": "node", "id": 4445129008, "name": "Vardaan Hospital (Unit Of Jindal Medicare)", "amenity": "hospital", "water": null, "natural": null }, "geometry": { "type": "Point", "coordinates": [ 81.6632415, 21.2520112 ] } },
{ "type": "Feature", "properties": { "element": "node", "id": 4445137285, "name": "Bal Gopal Children Hospital and Research Institute", "amenity": "hospital", "water": null, "natural": null }, "geometry": { "type": "Point", "coordinates": [ 81.6413322, 21.2349337 ] } },
{ "type": "Feature", "properties": { "element": "node", "id": 4445146001, "name": "Yashwant Hospital", "amenity": "hospital", "water": null, "natural": null }, "geometry": { "type": "Point", "coordinates": [ 81.6293508, 21.2403202 ] } },
{ "type": "Feature", "properties": { "element": "node", "id": 4445154370, "name": "Sai Baba Nursing Home, Raipur", "amenity": "clinic", "water": null, "natural": null }, "geometry": { "type": "Point", "coordinates": [ 81.6590109, 21.2254025 ] } },
{ "type": "Feature", "properties": { "element": "node", "id": 4445158557, "name": "Bharat Mata higher secondary school", "amenity": "school", "water": null, "natural": null }, "geometry": { "type": "Point", "coordinates": [ 81.5742895, 21.2604534 ] } },
{ "type": "Feature", "properties": { "element": "node", "id": 4445165297, "name": "Dronacharya public school", "amenity": "school", "water": null, "natural": null }, "geometry": { "type": "Point", "coordinates": [ 81.6522695, 21.2188586 ] } },
{ "type": "Feature", "properties": { "element": "node", "id": 4445176350, "name": "The Radient Way School", "amenity": "school", "water": null, "natural": null }, "geometry": { "type": "Point", "coordinates": [ 81.5880403, 21.2451205 ] } },
{ "type": "Feature", "properties": { "element": "node", "id": 4445182024, "name": "Holy cross senior secondary school", "amenity": "school", "water": null, "natural": null }, "geometry": { "type": "Point", "coordinates": [ 81.6602541, 21.2617556 ] } },
{ "type": "Feature", "properties": { "element": "node", "id": 4445255005, "name": "Bharatiya vidya bhuvans R.K. sarda vidya mandir", "amenity": "school", "water": null, "natural": null }, "geometry": { "type": "Point", "coordinates": [ 81.7017642, 21.2885051 ] } },
{ "type": "Feature", "properties": { "element": "node", "id": 4445258453, "name": "MGM school", "amenity": "school", "water": null, "natural": null }, "geometry": { "type": "Point", "coordinates": [ 81.6704839, 21.2515714 ] } },
{ "type": "Feature", "properties": { "element": "node", "id": 4445382462, "name": "Ryan International School", "amenity": "school", "water": null, "natural": null }, "geometry": { "type": "Point", "coordinates": [ 81.6883917, 21.2474275 ] } },
{ "type": "Feature", "properties": { "element": "node", "id": 4445641692, "name": "indira gandhi agricultural university", "amenity": "university", "water": null, "natural": null }, "geometry": { "type": "Point", "coordinates": [ 81.7041441, 21.2366163 ] } },
{ "type": "Feature", "properties": { "element": "node", "id": 4445650311, "name": "government dentalcollege", "amenity": "college", "water": null, "natural": null }, "geometry": { "type": "Point", "coordinates": [ 81.6394641, 21.2479688 ] } },
{ "type": "Feature", "properties": { "element": "node", "id": 4445663649, "name": "Government Engineering College", "amenity": "college", "water": null, "natural": null }, "geometry": { "type": "Point", "coordinates": [ 81.6589768, 21.1630598 ] } },
{ "type": "Feature", "properties": { "element": "node", "id": 4445691567, "name": "Government .J. yaganandam chittisgarh college", "amenity": "college", "water": null, "natural": null }, "geometry": { "type": "Point", "coordinates": [ 81.6469485, 21.2358387 ] } },
{ "type": "Feature", "properties": { "element": "node", "id": 4445705583, "name": "Government nagarjuna post graduate college of science", "amenity": "college", "water": null, "natural": null }, "geometry": { "type": "Point", "coordinates": [ 81.6022271, 21.2477275 ] } },
{ "type": "Feature", "properties": { "element": "node", "id": 4446177077, "name": "ITM University", "amenity": "university", "water": null, "natural": null }, "geometry": { "type": "Point", "coordinates": [ 81.6460891, 21.2496366 ] } },
{ "type": "Feature", "properties": { "element": "node", "id": 4446574875, "name": "Grass Memorial Ground", "amenity": "school", "water": null, "natural": null }, "geometry": { "type": "Point", "coordinates": [ 81.6450914, 21.2385713 ] } },
{ "type": "Feature", "properties": { "element": "node", "id": 4517107054, "name": null, "amenity": "clinic", "water": null, "natural": null }, "geometry": { "type": "Point", "coordinates": [ 81.6499139, 21.2636268 ] } },
{ "type": "Feature", "properties": { "element": "node", "id": 4517173488, "name": "Gurukripa Prasuti and Nursing Home", "amenity": "clinic", "water": null, "natural": null }, "geometry": { "type": "Point", "coordinates": [ 81.6596106, 21.2361497 ] } },
{ "type": "Feature", "properties": { "element": "node", "id": 4711002386, "name": "Mittal Hospital", "amenity": "hospital", "water": null, "natural": null }, "geometry": { "type": "Point", "coordinates": [ 81.6587146, 21.260362 ] } },
{ "type": "Feature", "properties": { "element": "node", "id": 4713523804, "name": "DR. AGRAWAL(leproscopy)", "amenity": "doctors", "water": null, "natural": null }, "geometry": { "type": "Point", "coordinates": [ 81.6122595, 21.2438717 ] } },
{ "type": "Feature", "properties": { "element": "node", "id": 4714397417, "name": "rajkumar college", "amenity": "school", "water": null, "natural": null }, "geometry": { "type": "Point", "coordinates": [ 81.6125936, 21.2432541 ] } },
{ "type": "Feature", "properties": { "element": "node", "id": 4714398161, "name": "jain mandir", "amenity": "hospital", "water": null, "natural": null }, "geometry": { "type": "Point", "coordinates": [ 81.6480755, 21.2274864 ] } },
{ "type": "Feature", "properties": { "element": "node", "id": 4714398175, "name": "chandak hospital", "amenity": "hospital", "water": null, "natural": null }, "geometry": { "type": "Point", "coordinates": [ 81.6484364, 21.2278656 ] } },
{ "type": "Feature", "properties": { "element": "node", "id": 4714434473, "name": "Pragati College", "amenity": "college", "water": null, "natural": null }, "geometry": { "type": "Point", "coordinates": [ 81.614792, 21.2470914 ] } },
{ "type": "Feature", "properties": { "element": "node", "id": 4714658051, "name": "sukriti hospital", "amenity": "hospital", "water": null, "natural": null }, "geometry": { "type": "Point", "coordinates": [ 81.649911, 21.2506345 ] } },
{ "type": "Feature", "properties": { "element": "node", "id": 4992889217, "name": "Sarsvati H.S. Girl's School", "amenity": "school", "water": null, "natural": null }, "geometry": { "type": "Point", "coordinates": [ 81.6256611, 21.2350301 ] } },
{ "type": "Feature", "properties": { "element": "node", "id": 4994374903, "name": "primary government hospital Bangoli", "amenity": "hospital", "water": null, "natural": null }, "geometry": { "type": "Point", "coordinates": [ 81.8506453, 21.4005479 ] } },
{ "type": "Feature", "properties": { "element": "node", "id": 4995334117, "name": "Shri Sai Ganesh Hospital", "amenity": "hospital", "water": null, "natural": null }, "geometry": { "type": "Point", "coordinates": [ 81.6180852, 21.2661965 ] } },
{ "type": "Feature", "properties": { "element": "node", "id": 4995334119, "name": "Raipur Convent Hr. Sec. School", "amenity": "school", "water": null, "natural": null }, "geometry": { "type": "Point", "coordinates": [ 81.6184735, 21.2644553 ] } },
{ "type": "Feature", "properties": { "element": "node", "id": 5291004165, "name": "Dani Girls Higher Secondary School", "amenity": "school", "water": null, "natural": null }, "geometry": { "type": "Point", "coordinates": [ 81.6362732, 21.2336814 ] } },
{ "type": "Feature", "properties": { "element": "node", "id": 5292958786, "name": "Om Hospital", "amenity": "hospital", "water": null, "natural": null }, "geometry": { "type": "Point", "coordinates": [ 81.6030309, 21.231444 ] } },
{ "type": "Feature", "properties": { "element": "node", "id": 5307773062, "name": "PG Daga Girls College, Raipur", "amenity": "college", "water": null, "natural": null }, "geometry": { "type": "Point", "coordinates": [ 81.6403859, 21.2468627 ] } },
{ "type": "Feature", "properties": { "element": "node", "id": 5314535652, "name": "jeevandeep hospital", "amenity": "hospital", "water": null, "natural": null }, "geometry": { "type": "Point", "coordinates": [ 81.7471376, 21.055395 ] } },
{ "type": "Feature", "properties": { "element": "node", "id": 5316602849, "name": "nationl convent", "amenity": "school", "water": null, "natural": null }, "geometry": { "type": "Point", "coordinates": [ 81.6073713, 21.2286881 ] } },
{ "type": "Feature", "properties": { "element": "node", "id": 5322573110, "name": "mandi gate", "amenity": "hospital", "water": null, "natural": null }, "geometry": { "type": "Point", "coordinates": [ 81.6639038, 21.2663177 ] } },
{ "type": "Feature", "properties": { "element": "node", "id": 5334723087, "name": "Govt.School Dumartarai", "amenity": "school", "water": null, "natural": null }, "geometry": { "type": "Point", "coordinates": [ 81.6863964, 21.1996875 ] } },
{ "type": "Feature", "properties": { "element": "node", "id": 5544255793, "name": "Gurukul College Ground", "amenity": "college", "water": null, "natural": null }, "geometry": { "type": "Point", "coordinates": [ 81.6401107, 21.2349293 ] } },
{ "type": "Feature", "properties": { "element": "node", "id": 5555790663, "name": "govt cg college", "amenity": "college", "water": null, "natural": null }, "geometry": { "type": "Point", "coordinates": [ 81.6469417, 21.2357304 ] } },
{ "type": "Feature", "properties": { "element": "node", "id": 5555790664, "name": "govt j.yogananad", "amenity": "college", "water": null, "natural": null }, "geometry": { "type": "Point", "coordinates": [ 81.6469051, 21.2357342 ] } },
{ "type": "Feature", "properties": { "element": "node", "id": 5556568170, "name": "Navkar Hospital and Maternity Home", "amenity": "hospital", "water": null, "natural": null }, "geometry": { "type": "Point", "coordinates": [ 81.6545326, 21.2284143 ] } },
{ "type": "Feature", "properties": { "element": "node", "id": 6008131671, "name": "sharda hospital birgaon", "amenity": "hospital", "water": null, "natural": null }, "geometry": { "type": "Point", "coordinates": [ 81.635563, 21.3057768 ] } },
{ "type": "Feature", "properties": { "element": "node", "id": 6008131672, "name": "aadvani Govt.H.S. School Birgaon", "amenity": "school", "water": null, "natural": null }, "geometry": { "type": "Point", "coordinates": [ 81.6344311, 21.3063415 ] } },
{ "type": "Feature", "properties": { "element": "node", "id": 6008131673, "name": "N.K.D. Hospital", "amenity": "hospital", "water": null, "natural": null }, "geometry": { "type": "Point", "coordinates": [ 81.633495, 21.3054532 ] } },
{ "type": "Feature", "properties": { "element": "node", "id": 6022759660, "name": null, "amenity": "hospital", "water": null, "natural": null }, "geometry": { "type": "Point", "coordinates": [ 81.6118512, 21.2342393 ] } },
{ "type": "Feature", "properties": { "element": "node", "id": 6024936693, "name": "hospital pt. rsu", "amenity": "hospital", "water": null, "natural": null }, "geometry": { "type": "Point", "coordinates": [ 81.5936087, 21.2428278 ] } },
{ "type": "Feature", "properties": { "element": "node", "id": 6025154930, "name": null, "amenity": "clinic", "water": null, "natural": null }, "geometry": { "type": "Point", "coordinates": [ 81.6116013, 21.2315208 ] } },
{ "type": "Feature", "properties": { "element": "node", "id": 6026832433, "name": "School Number 1", "amenity": "school", "water": null, "natural": null }, "geometry": { "type": "Point", "coordinates": [ 81.6649533, 21.2275847 ] } },
{ "type": "Feature", "properties": { "element": "node", "id": 6026832449, "name": "Aanchal Nursing Home", "amenity": "clinic", "water": null, "natural": null }, "geometry": { "type": "Point", "coordinates": [ 81.6644956, 21.2286413 ] } },
{ "type": "Feature", "properties": { "element": "node", "id": 6026832450, "name": "Nursing Home", "amenity": "hospital", "water": null, "natural": null }, "geometry": { "type": "Point", "coordinates": [ 81.6652611, 21.2284159 ] } },
{ "type": "Feature", "properties": { "element": "node", "id": 6026832463, "name": "Dronacharya School", "amenity": "school", "water": null, "natural": null }, "geometry": { "type": "Point", "coordinates": [ 81.6624265, 21.2214164 ] } },
{ "type": "Feature", "properties": { "element": "node", "id": 6026845325, "name": "LITTILE FLOWER SCHOOL", "amenity": "school", "water": null, "natural": null }, "geometry": { "type": "Point", "coordinates": [ 81.5972333, 21.2406958 ] } },
{ "type": "Feature", "properties": { "element": "node", "id": 6068031835, "name": "statistics department", "amenity": "university", "water": null, "natural": null }, "geometry": { "type": "Point", "coordinates": [ 81.5942487, 21.2448382 ] } },
{ "type": "Feature", "properties": { "element": "node", "id": 6183620934, "name": "DB Girls College", "amenity": "college", "water": null, "natural": null }, "geometry": { "type": "Point", "coordinates": [ 81.6907668, 21.3558144 ] } },
{ "type": "Feature", "properties": { "element": "node", "id": 6185331288, "name": "GOVT. DB GIRLS PG COLLEGE", "amenity": "college", "water": null, "natural": null }, "geometry": { "type": "Point", "coordinates": [ 81.6366541, 21.2328154 ] } },
{ "type": "Feature", "properties": { "element": "node", "id": 6185331289, "name": "DANI GIRLS SCHOOL", "amenity": "school", "water": null, "natural": null }, "geometry": { "type": "Point", "coordinates": [ 81.6360801, 21.2333529 ] } },
{ "type": "Feature", "properties": { "element": "node", "id": 6280344011, "name": "Cricket and Hockey Ground", "amenity": "college", "water": null, "natural": null }, "geometry": { "type": "Point", "coordinates": [ 81.6049309, 21.2477393 ] } },
{ "type": "Feature", "properties": { "element": "node", "id": 6280344012, "name": "Football Ground", "amenity": "college", "water": null, "natural": null }, "geometry": { "type": "Point", "coordinates": [ 81.6069578, 21.2490285 ] } },
{ "type": "Feature", "properties": { "element": "node", "id": 6280896321, "name": "Rawlani Nursing Home", "amenity": "clinic", "water": null, "natural": null }, "geometry": { "type": "Point", "coordinates": [ 81.6554783, 21.2338179 ] } },
{ "type": "Feature", "properties": { "element": "node", "id": 6283904436, "name": "Dispensary", "amenity": "hospital", "water": null, "natural": null }, "geometry": { "type": "Point", "coordinates": [ 81.6023593, 21.2514868 ] } },
{ "type": "Feature", "properties": { "element": "node", "id": 6950645735, "name": "Mata Laxmi Nursing Home and Investigation Center Pvt Ltd", "amenity": "clinic", "water": null, "natural": null }, "geometry": { "type": "Point", "coordinates": [ 81.6649966, 21.2551367 ] } },
{ "type": "Feature", "properties": { "element": "node", "id": 6950645744, "name": "Karma Hospital", "amenity": "hospital", "water": null, "natural": null }, "geometry": { "type": "Point", "coordinates": [ 81.6622585, 21.2401756 ] } },
{ "type": "Feature", "properties": { "element": "node", "id": 6950645749, "name": "Chhattisgarh Eye Hospital", "amenity": "hospital", "water": null, "natural": null }, "geometry": { "type": "Point", "coordinates": [ 81.6621937, 21.2392112 ] } },
{ "type": "Feature", "properties": { "element": "node", "id": 6950645754, "name": "Farishta Nursing Home", "amenity": "clinic", "water": null, "natural": null }, "geometry": { "type": "Point", "coordinates": [ 81.6494626, 21.2338498 ] } },
{ "type": "Feature", "properties": { "element": "node", "id": 6950645759, "name": "Kalda Nursing Home", "amenity": "clinic", "water": null, "natural": null }, "geometry": { "type": "Point", "coordinates": [ 81.6546674, 21.2340048 ] } },
{ "type": "Feature", "properties": { "element": "node", "id": 6950645768, "name": "Memon Nursing Home", "amenity": "clinic", "water": null, "natural": null }, "geometry": { "type": "Point", "coordinates": [ 81.6491957, 21.2291608 ] } },
{ "type": "Feature", "properties": { "element": "node", "id": 6950645773, "name": "Devi Laxmi Hospital", "amenity": "hospital", "water": null, "natural": null }, "geometry": { "type": "Point", "coordinates": [ 81.6522994, 21.2233136 ] } },
{ "type": "Feature", "properties": { "element": "node", "id": 6950646487, "name": "Sanjeevani Cbcc Usa Cancer Hospital", "amenity": "hospital", "water": null, "natural": null }, "geometry": { "type": "Point", "coordinates": [ 81.6503232, 21.2142649 ] } },
{ "type": "Feature", "properties": { "element": "node", "id": 6953081122, "name": "Dr. Saleems Iccu and Critical Care Nusing Home", "amenity": "clinic", "water": null, "natural": null }, "geometry": { "type": "Point", "coordinates": [ 81.6491719, 21.2456609 ] } },
{ "type": "Feature", "properties": { "element": "node", "id": 6953541281, "name": "Aashirwad Fertility and Endoscopy Center", "amenity": "hospital", "water": null, "natural": null }, "geometry": { "type": "Point", "coordinates": [ 81.6077931, 21.2346486 ] } },
{ "type": "Feature", "properties": { "element": "node", "id": 6953567786, "name": "Aarogyadham Nursing Home", "amenity": "clinic", "water": null, "natural": null }, "geometry": { "type": "Point", "coordinates": [ 81.5897512, 21.2575527 ] } },
{ "type": "Feature", "properties": { "element": "node", "id": 6956627640, "name": "Sarbhai Nursing Home", "amenity": "clinic", "water": null, "natural": null }, "geometry": { "type": "Point", "coordinates": [ 81.6097623, 21.2346441 ] } },
{ "type": "Feature", "properties": { "element": "node", "id": 6956627645, "name": "Samarpan Hospital, Raipur", "amenity": "hospital", "water": null, "natural": null }, "geometry": { "type": "Point", "coordinates": [ 81.6679336, 21.2650092 ] } },
{ "type": "Feature", "properties": { "element": "node", "id": 6956627650, "name": "Sai Sushrusha Hospital", "amenity": "hospital", "water": null, "natural": null }, "geometry": { "type": "Point", "coordinates": [ 81.6418236, 21.2352073 ] } },
{ "type": "Feature", "properties": { "element": "node", "id": 6956627655, "name": "Sai Kalayan Hospital And Icu", "amenity": "hospital", "water": null, "natural": null }, "geometry": { "type": "Point", "coordinates": [ 81.6684566, 21.2499934 ] } },
{ "type": "Feature", "properties": { "element": "node", "id": 6956627660, "name": "Sai Baba Eye Hospital", "amenity": "hospital", "water": null, "natural": null }, "geometry": { "type": "Point", "coordinates": [ 81.6370104, 21.2595225 ] } },
{ "type": "Feature", "properties": { "element": "node", "id": 6956627669, "name": "Raipur Institute Of Medical Sciences Hospital", "amenity": "hospital", "water": null, "natural": null }, "geometry": { "type": "Point", "coordinates": [ 81.8368053, 21.2419875 ] } },
{ "type": "Feature", "properties": { "element": "node", "id": 6956629786, "name": "R.S. Polyclinic and Diagnostic Center", "amenity": "clinic", "water": null, "natural": null }, "geometry": { "type": "Point", "coordinates": [ 81.5778489, 21.2597924 ] } },
{ "type": "Feature", "properties": { "element": "node", "id": 6956629791, "name": "Prannath Mission Hospital", "amenity": "hospital", "water": null, "natural": null }, "geometry": { "type": "Point", "coordinates": [ 81.6395652, 21.2647055 ] } },
{ "type": "Feature", "properties": { "element": "node", "id": 6956629796, "name": "Piles Care Hospital", "amenity": "hospital", "water": null, "natural": null }, "geometry": { "type": "Point", "coordinates": [ 81.6468099, 21.2454024 ] } },
{ "type": "Feature", "properties": { "element": "node", "id": 6956629801, "name": "Tharani Children Hospital And Dental Clinic", "amenity": "hospital", "water": null, "natural": null }, "geometry": { "type": "Point", "coordinates": [ 81.6595718, 21.2248204 ] } },
{ "type": "Feature", "properties": { "element": "node", "id": 6956629810, "name": "Dr. M.R. Bhagwat Memorial Hospital", "amenity": "hospital", "water": null, "natural": null }, "geometry": { "type": "Point", "coordinates": [ 81.6145067, 21.2439374 ] } },
{ "type": "Feature", "properties": { "element": "node", "id": 6956629815, "name": "Kalda Plastic and Cosmetic Surgery Institute and Burn Centre", "amenity": "hospital", "water": null, "natural": null }, "geometry": { "type": "Point", "coordinates": [ 81.6572553, 21.2166146 ] } },
{ "type": "Feature", "properties": { "element": "node", "id": 6956629976, "name": "Vidya Hospital And Kidney Centre", "amenity": "hospital", "water": null, "natural": null }, "geometry": { "type": "Point", "coordinates": [ 81.6617082, 21.2491409 ] } },
{ "type": "Feature", "properties": { "element": "node", "id": 6956655133, "name": "Shri Aurobindo Medical Research Centre", "amenity": "hospital", "water": null, "natural": null }, "geometry": { "type": "Point", "coordinates": [ 81.6542597, 21.2145777 ] } },
{ "type": "Feature", "properties": { "element": "node", "id": 6956655140, "name": "Shree Sai Care Hospital", "amenity": "hospital", "water": null, "natural": null }, "geometry": { "type": "Point", "coordinates": [ 81.6698393, 21.2398899 ] } },
{ "type": "Feature", "properties": { "element": "node", "id": 6956655145, "name": "Shree Medishine Hospital - Raipur", "amenity": "hospital", "water": null, "natural": null }, "geometry": { "type": "Point", "coordinates": [ 81.6655757, 21.2200322 ] } },
{ "type": "Feature", "properties": { "element": "node", "id": 6956655152, "name": "Sarvodaya Hospital and Maternity Center", "amenity": "hospital", "water": null, "natural": null }, "geometry": { "type": "Point", "coordinates": [ 81.6710436, 21.2715555 ] } },
{ "type": "Feature", "properties": { "element": "node", "id": 6957120029, "name": "Visharad Hospital", "amenity": "hospital", "water": null, "natural": null }, "geometry": { "type": "Point", "coordinates": [ 81.6413422, 21.2391162 ] } },
{ "type": "Feature", "properties": { "element": "node", "id": 6957120034, "name": "Urmila Memorial Multispeciality Hospital", "amenity": "hospital", "water": null, "natural": null }, "geometry": { "type": "Point", "coordinates": [ 81.6553302, 21.2582818 ] } },
{ "type": "Feature", "properties": { "element": "node", "id": 6957120039, "name": "Upadhyay Hospital, Raipur", "amenity": "hospital", "water": null, "natural": null }, "geometry": { "type": "Point", "coordinates": [ 81.5873668, 21.2625908 ] } },
{ "type": "Feature", "properties": { "element": "node", "id": 6957120044, "name": "Swastik Nursing Home, Raipur", "amenity": "clinic", "water": null, "natural": null }, "geometry": { "type": "Point", "coordinates": [ 81.6559187, 21.2355336 ] } },
{ "type": "Feature", "properties": { "element": "node", "id": 6957120057, "name": "Subham Hospital and Maternity Home", "amenity": "hospital", "water": null, "natural": null }, "geometry": { "type": "Point", "coordinates": [ 81.6282919, 21.2599874 ] } },
{ "type": "Feature", "properties": { "element": "node", "id": 6957120062, "name": "Subba Rao Hospital", "amenity": "hospital", "water": null, "natural": null }, "geometry": { "type": "Point", "coordinates": [ 81.6373428, 21.2570692 ] } },
{ "type": "Feature", "properties": { "element": "node", "id": 6957120067, "name": "Srimaa Sarada Arogyadham", "amenity": "hospital", "water": null, "natural": null }, "geometry": { "type": "Point", "coordinates": [ 81.5954804, 21.2308046 ] } },
{ "type": "Feature", "properties": { "element": "node", "id": 6957120077, "name": "Sobhagya Hospital", "amenity": "hospital", "water": null, "natural": null }, "geometry": { "type": "Point", "coordinates": [ 81.6335745, 21.2740474 ] } },
{ "type": "Feature", "properties": { "element": "node", "id": 6957120082, "name": "Shri Ram Hospital, Raipur", "amenity": "hospital", "water": null, "natural": null }, "geometry": { "type": "Point", "coordinates": [ 81.6117065, 21.2361049 ] } },
{ "type": "Feature", "properties": { "element": "node", "id": 6957133287, "name": "Shri Balaji Institute Of Medical Science Pvt Ltd", "amenity": "hospital", "water": null, "natural": null }, "geometry": { "type": "Point", "coordinates": [ 81.6717492, 21.2724251 ] } },
{ "type": "Feature", "properties": { "element": "node", "id": 6957503647, "name": "Pathak Hospital, Raipur", "amenity": "hospital", "water": null, "natural": null }, "geometry": { "type": "Point", "coordinates": [ 81.6358182, 21.264633 ] } },
{ "type": "Feature", "properties": { "element": "node", "id": 6957503652, "name": "Gbg Kidney Care Hospital", "amenity": "hospital", "water": null, "natural": null }, "geometry": { "type": "Point", "coordinates": [ 81.6585526, 21.2259317 ] } },
{ "type": "Feature", "properties": { "element": "node", "id": 6965495354, "name": "Modi Hospital", "amenity": "hospital", "water": null, "natural": null }, "geometry": { "type": "Point", "coordinates": [ 81.6186909, 21.2462123 ] } },
{ "type": "Feature", "properties": { "element": "node", "id": 6965495359, "name": "Jagjivan Urology Centre", "amenity": "hospital", "water": null, "natural": null }, "geometry": { "type": "Point", "coordinates": [ 81.6239078, 21.2461698 ] } },
{ "type": "Feature", "properties": { "element": "node", "id": 6965495364, "name": "Sachdev Nursing Home and Diagnostic Entre", "amenity": "clinic", "water": null, "natural": null }, "geometry": { "type": "Point", "coordinates": [ 81.6240438, 21.2461629 ] } },
{ "type": "Feature", "properties": { "element": "node", "id": 6965495369, "name": "Pandey Nursing Home, Raipur", "amenity": "clinic", "water": null, "natural": null }, "geometry": { "type": "Point", "coordinates": [ 81.6196019, 21.2465695 ] } },
{ "type": "Feature", "properties": { "element": "node", "id": 6965495374, "name": "Sahai Hospital", "amenity": "hospital", "water": null, "natural": null }, "geometry": { "type": "Point", "coordinates": [ 81.656616, 21.2230452 ] } },
{ "type": "Feature", "properties": { "element": "node", "id": 6965495384, "name": "Pragya Hospital, Raipur", "amenity": "hospital", "water": null, "natural": null }, "geometry": { "type": "Point", "coordinates": [ 81.6601836, 21.2443828 ] } },
{ "type": "Feature", "properties": { "element": "node", "id": 6965497689, "name": "P D Jethani Memorial Hospital and Diagnostic Center", "amenity": "hospital", "water": null, "natural": null }, "geometry": { "type": "Point", "coordinates": [ 81.6376406, 21.2789978 ] } },
{ "type": "Feature", "properties": { "element": "node", "id": 6965497699, "name": "Nigam Ent Hospital", "amenity": "hospital", "water": null, "natural": null }, "geometry": { "type": "Point", "coordinates": [ 81.6568963, 21.2472973 ] } },
{ "type": "Feature", "properties": { "element": "node", "id": 6965497704, "name": "Srijan Nursing Home", "amenity": "clinic", "water": null, "natural": null }, "geometry": { "type": "Point", "coordinates": [ 81.6550349, 21.229697 ] } },
{ "type": "Feature", "properties": { "element": "node", "id": 6965497709, "name": "Ganpati Hospital (Banthia Hospital)", "amenity": "hospital", "water": null, "natural": null }, "geometry": { "type": "Point", "coordinates": [ 81.6474972, 21.2458836 ] } },
{ "type": "Feature", "properties": { "element": "node", "id": 6965497714, "name": "Yashwant Hospital, Raipur", "amenity": "hospital", "water": null, "natural": null }, "geometry": { "type": "Point", "coordinates": [ 81.62751, 21.2399062 ] } },
{ "type": "Feature", "properties": { "element": "node", "id": 6965497719, "name": "Tripathi Hospital, Raipur", "amenity": "hospital", "water": null, "natural": null }, "geometry": { "type": "Point", "coordinates": [ 81.6579813, 21.2495084 ] } },
{ "type": "Feature", "properties": { "element": "node", "id": 6965497724, "name": "Jeewan Memorial Hospital For Plastic Surgery and Uro", "amenity": "hospital", "water": null, "natural": null }, "geometry": { "type": "Point", "coordinates": [ 81.6580936, 21.2496099 ] } },
{ "type": "Feature", "properties": { "element": "node", "id": 6965497729, "name": "Om Netra Kendra", "amenity": "hospital", "water": null, "natural": null }, "geometry": { "type": "Point", "coordinates": [ 81.6448975, 21.2487035 ] } },
{ "type": "Feature", "properties": { "element": "node", "id": 6965497734, "name": "Roopjeevan Hospital", "amenity": "hospital", "water": null, "natural": null }, "geometry": { "type": "Point", "coordinates": [ 81.6410096, 21.2567003 ] } },
{ "type": "Feature", "properties": { "element": "node", "id": 6965497739, "name": "Jubesta Hospital", "amenity": "hospital", "water": null, "natural": null }, "geometry": { "type": "Point", "coordinates": [ 81.6435068, 21.257246 ] } },
{ "type": "Feature", "properties": { "element": "node", "id": 6965497744, "name": "Jain Hospital, Raipur", "amenity": "hospital", "water": null, "natural": null }, "geometry": { "type": "Point", "coordinates": [ 81.6448666, 21.2559026 ] } },
{ "type": "Feature", "properties": { "element": "node", "id": 6965497749, "name": "Dr. Rajehwari Kulkarni Surgical Hospital And Dia", "amenity": "hospital", "water": null, "natural": null }, "geometry": { "type": "Point", "coordinates": [ 81.6466855, 21.2573909 ] } },
{ "type": "Feature", "properties": { "element": "node", "id": 6965497759, "name": "Ekta Institute Of Child Health", "amenity": "hospital", "water": null, "natural": null }, "geometry": { "type": "Point", "coordinates": [ 81.6566214, 21.2471211 ] } },
{ "type": "Feature", "properties": { "element": "node", "id": 6965834116, "name": "Ayush Hospital and Maternity Home", "amenity": "hospital", "water": null, "natural": null }, "geometry": { "type": "Point", "coordinates": [ 81.6739498, 21.2623121 ] } },
{ "type": "Feature", "properties": { "element": "node", "id": 6965834121, "name": "Ayushman Hospital and Diagnostic Institute", "amenity": "hospital", "water": null, "natural": null }, "geometry": { "type": "Point", "coordinates": [ 81.6097793, 21.2345823 ] } },
{ "type": "Feature", "properties": { "element": "node", "id": 6965834122, "name": "Bachpan Hospital", "amenity": "hospital", "water": null, "natural": null }, "geometry": { "type": "Point", "coordinates": [ 81.6000053, 21.2293683 ] } },
{ "type": "Feature", "properties": { "element": "node", "id": 6965834131, "name": "Bhaskar Eye Care", "amenity": "clinic", "water": null, "natural": null }, "geometry": { "type": "Point", "coordinates": [ 81.6221456, 21.2385456 ] } },
{ "type": "Feature", "properties": { "element": "node", "id": 6965834136, "name": "Bhattar Hospital", "amenity": "hospital", "water": null, "natural": null }, "geometry": { "type": "Point", "coordinates": [ 81.6395467, 21.242349 ] } },
{ "type": "Feature", "properties": { "element": "node", "id": 6965834146, "name": "City Hospital And Research Centre", "amenity": "hospital", "water": null, "natural": null }, "geometry": { "type": "Point", "coordinates": [ 81.6100636, 21.2465523 ] } },
{ "type": "Feature", "properties": { "element": "node", "id": 6965834156, "name": "Devkripa Hospital and Doctor Plaza", "amenity": "hospital", "water": null, "natural": null }, "geometry": { "type": "Point", "coordinates": [ 81.6685317, 21.2510058 ] } },
{ "type": "Feature", "properties": { "element": "node", "id": 6965834161, "name": "Dr. Jaulkar Ent Hospital", "amenity": "hospital", "water": null, "natural": null }, "geometry": { "type": "Point", "coordinates": [ 81.6123417, 21.2471581 ] } },
{ "type": "Feature", "properties": { "element": "node", "id": 6965834166, "name": "Dr. Sandeep Bhagwat Orthopedic Hospital", "amenity": "hospital", "water": null, "natural": null }, "geometry": { "type": "Point", "coordinates": [ 81.6453123, 21.2491114 ] } },
{ "type": "Feature", "properties": { "element": "node", "id": 6965834171, "name": "Dr. Sarna Nursing Home", "amenity": "clinic", "water": null, "natural": null }, "geometry": { "type": "Point", "coordinates": [ 81.6536857, 21.2314597 ] } },
{ "type": "Feature", "properties": { "element": "node", "id": 6965834176, "name": "Eye and Ent Hospital", "amenity": "hospital", "water": null, "natural": null }, "geometry": { "type": "Point", "coordinates": [ 81.6461378, 21.2495993 ] } },
{ "type": "Feature", "properties": { "element": "node", "id": 6965834177, "name": "Heritage Hospital, Raipur", "amenity": "hospital", "water": null, "natural": null }, "geometry": { "type": "Point", "coordinates": [ 81.6429824, 21.2604399 ] } },
{ "type": "Feature", "properties": { "element": "node", "id": 6965834182, "name": "Jyoti Hospital and Prasuti Griha", "amenity": "hospital", "water": null, "natural": null }, "geometry": { "type": "Point", "coordinates": [ 81.8090755, 21.5563958 ] } },
{ "type": "Feature", "properties": { "element": "node", "id": 6965836187, "name": "K G N Surical and Maternity Centre", "amenity": "hospital", "water": null, "natural": null }, "geometry": { "type": "Point", "coordinates": [ 81.645458, 21.2342586 ] } },
{ "type": "Feature", "properties": { "element": "node", "id": 6965836192, "name": "K.M. Hospital", "amenity": "hospital", "water": null, "natural": null }, "geometry": { "type": "Point", "coordinates": [ 81.6384199, 21.2438524 ] } },
{ "type": "Feature", "properties": { "element": "node", "id": 6965836197, "name": "M. M. Hospital", "amenity": "hospital", "water": null, "natural": null }, "geometry": { "type": "Point", "coordinates": [ 81.6367264, 21.2605318 ] } },
{ "type": "Feature", "properties": { "element": "node", "id": 6965836202, "name": "Mahadev Hospital", "amenity": "hospital", "water": null, "natural": null }, "geometry": { "type": "Point", "coordinates": [ 81.597827, 21.2294448 ] } },
{ "type": "Feature", "properties": { "element": "node", "id": 6965836211, "name": "Mishra Speciality Hospital", "amenity": "hospital", "water": null, "natural": null }, "geometry": { "type": "Point", "coordinates": [ 81.6380407, 21.2615844 ] } },
{ "type": "Feature", "properties": { "element": "node", "id": 6965836216, "name": "Matra Smriti Hospital", "amenity": "hospital", "water": null, "natural": null }, "geometry": { "type": "Point", "coordinates": [ 81.6197897, 21.2686163 ] } },
{ "type": "Feature", "properties": { "element": "node", "id": 6965836221, "name": "M D Hospital and Iccu", "amenity": "hospital", "water": null, "natural": null }, "geometry": { "type": "Point", "coordinates": [ 81.6236986, 21.2465873 ] } },
{ "type": "Feature", "properties": { "element": "node", "id": 6966522779, "name": "Mgm Eye Hospital", "amenity": "hospital", "water": null, "natural": null }, "geometry": { "type": "Point", "coordinates": [ 81.7026642, 21.2783101 ] } },
{ "type": "Feature", "properties": { "element": "node", "id": 6966551454, "name": "Gawari Ivf Center and Nursing Home", "amenity": "clinic", "water": null, "natural": null }, "geometry": { "type": "Point", "coordinates": [ 81.637803, 21.2616409 ] } },
{ "type": "Feature", "properties": { "element": "node", "id": 6966551463, "name": "Suprita Hospital", "amenity": "hospital", "water": null, "natural": null }, "geometry": { "type": "Point", "coordinates": [ 81.6388497, 21.2564347 ] } },
{ "type": "Feature", "properties": { "element": "node", "id": 6966773175, "name": "Janaswamy Foundation (Janaswamy Eye Clinic)", "amenity": "clinic", "water": null, "natural": null }, "geometry": { "type": "Point", "coordinates": [ 81.6359375, 21.2356911 ] } },
{ "type": "Feature", "properties": { "element": "node", "id": 6966791999, "name": "Parag Nursing Home", "amenity": "clinic", "water": null, "natural": null }, "geometry": { "type": "Point", "coordinates": [ 81.6372753, 21.260982 ] } },
{ "type": "Feature", "properties": { "element": "node", "id": 6966792004, "name": "Evangelical Mission Hospital", "amenity": "hospital", "water": null, "natural": null }, "geometry": { "type": "Point", "coordinates": [ 81.7903335, 21.5540159 ] } },
{ "type": "Feature", "properties": { "element": "node", "id": 6966792005, "name": "Bagdi Nursing Home", "amenity": "clinic", "water": null, "natural": null }, "geometry": { "type": "Point", "coordinates": [ 81.6321281, 21.2377905 ] } },
{ "type": "Feature", "properties": { "element": "node", "id": 6966792010, "name": "Lifeworth Super Speciality Hospital", "amenity": "hospital", "water": null, "natural": null }, "geometry": { "type": "Point", "coordinates": [ 81.6175885, 21.2456986 ] } },
{ "type": "Feature", "properties": { "element": "node", "id": 6966904907, "name": "Shri Manulal Memorial Medical Centre", "amenity": "hospital", "water": null, "natural": null }, "geometry": { "type": "Point", "coordinates": [ 81.6213289, 21.2363311 ] } },
{ "type": "Feature", "properties": { "element": "node", "id": 6966904930, "name": "Sahu Hospital, Raipur", "amenity": "hospital", "water": null, "natural": null }, "geometry": { "type": "Point", "coordinates": [ 81.6406797, 21.2554704 ] } },
{ "type": "Feature", "properties": { "element": "node", "id": 6966904976, "name": "Agrasen Hospital", "amenity": "hospital", "water": null, "natural": null }, "geometry": { "type": "Point", "coordinates": [ 81.6245992, 21.2454224 ] } },
{ "type": "Feature", "properties": { "element": "node", "id": 6968263373, "name": "Pt.J N M Medical College Hospital", "amenity": "hospital", "water": null, "natural": null }, "geometry": { "type": "Point", "coordinates": [ 81.6391427, 21.251975 ] } },
{ "type": "Feature", "properties": { "element": "node", "id": 6968280715, "name": "Ahluwalia Nursing Home", "amenity": "clinic", "water": null, "natural": null }, "geometry": { "type": "Point", "coordinates": [ 81.6293541, 21.2502459 ] } },
{ "type": "Feature", "properties": { "element": "node", "id": 6968280740, "name": "Kanwar Hospital, Raipur", "amenity": "hospital", "water": null, "natural": null }, "geometry": { "type": "Point", "coordinates": [ 81.6651843, 21.2532719 ] } },
{ "type": "Feature", "properties": { "element": "node", "id": 6968280745, "name": "Raipur Hospital", "amenity": "hospital", "water": null, "natural": null }, "geometry": { "type": "Point", "coordinates": [ 81.6415286, 21.2468461 ] } },
{ "type": "Feature", "properties": { "element": "node", "id": 6968280774, "name": "Sanjeewan Hospital, Raipur", "amenity": "hospital", "water": null, "natural": null }, "geometry": { "type": "Point", "coordinates": [ 81.6410136, 21.2208074 ] } },
{ "type": "Feature", "properties": { "element": "node", "id": 6968280794, "name": "Agrwal Nursing Home", "amenity": "clinic", "water": null, "natural": null }, "geometry": { "type": "Point", "coordinates": [ 81.6258404, 21.2460936 ] } },
{ "type": "Feature", "properties": { "element": "node", "id": 6968280856, "name": "Arihant Netralaya", "amenity": "hospital", "water": null, "natural": null }, "geometry": { "type": "Point", "coordinates": [ 81.6381209, 21.2359599 ] } },
{ "type": "Feature", "properties": { "element": "node", "id": 7148125099, "name": "Govt. T.B. Hospital", "amenity": "hospital", "water": null, "natural": null }, "geometry": { "type": "Point", "coordinates": [ 81.6389363, 21.2346921 ] } },
{ "type": "Feature", "properties": { "element": "node", "id": 7148125111, "name": "Government Hospital Farfoud", "amenity": "hospital", "water": null, "natural": null }, "geometry": { "type": "Point", "coordinates": [ 81.9506788, 21.2743757 ] } },
{ "type": "Feature", "properties": { "element": "node", "id": 7148125120, "name": "Government Hospital Uparwara", "amenity": "hospital", "water": null, "natural": null }, "geometry": { "type": "Point", "coordinates": [ 81.764341, 21.117467 ] } },
{ "type": "Feature", "properties": { "element": "node", "id": 7148125143, "name": "Government Hospital, Tilda", "amenity": "hospital", "water": null, "natural": null }, "geometry": { "type": "Point", "coordinates": [ 81.7969593, 21.5498742 ] } },
{ "type": "Feature", "properties": { "element": "node", "id": 7148125202, "name": "Government hospital,Khokhopara", "amenity": "hospital", "water": null, "natural": null }, "geometry": { "type": "Point", "coordinates": [ 81.6223248, 21.23239 ] } },
{ "type": "Feature", "properties": { "element": "node", "id": 7148125214, "name": "ESIS Dispensary", "amenity": "clinic", "water": null, "natural": null }, "geometry": { "type": "Point", "coordinates": [ 81.637089, 21.262291 ] } },
{ "type": "Feature", "properties": { "element": "node", "id": 7148125239, "name": "Government hospital arang", "amenity": "hospital", "water": null, "natural": null }, "geometry": { "type": "Point", "coordinates": [ 81.9703912, 21.1940118 ] } },
{ "type": "Feature", "properties": { "element": "node", "id": 7148125255, "name": "District Hospital Raipur", "amenity": "hospital", "water": null, "natural": null }, "geometry": { "type": "Point", "coordinates": [ 81.6401796, 21.2317387 ] } },
{ "type": "Feature", "properties": { "element": "node", "id": 7148125257, "name": "Goverment hospital Gobra Nawapara", "amenity": "hospital", "water": null, "natural": null }, "geometry": { "type": "Point", "coordinates": [ 81.8588705, 20.9675515 ] } },
{ "type": "Feature", "properties": { "element": "node", "id": 7148125258, "name": "Shri Khudadad Dungaji Government Ayurved College Hospital", "amenity": "hospital", "water": null, "natural": null }, "geometry": { "type": "Point", "coordinates": [ 81.605817, 21.244933 ] } },
{ "type": "Feature", "properties": { "element": "node", "id": 7148125308, "name": "Government Hospital", "amenity": "hospital", "water": null, "natural": null }, "geometry": { "type": "Point", "coordinates": [ 81.6598785, 21.2300217 ] } },
{ "type": "Feature", "properties": { "element": "node", "id": 7148125312, "name": "Labhandhi Government Hospital", "amenity": "hospital", "water": null, "natural": null }, "geometry": { "type": "Point", "coordinates": [ 81.703673, 21.244877 ] } },
{ "type": "Feature", "properties": { "element": "node", "id": 7288964595, "name": "Shri Balaji Hospital", "amenity": "hospital", "water": null, "natural": null }, "geometry": { "type": "Point", "coordinates": [ 81.6397097, 21.2261487 ] } },
{ "type": "Feature", "properties": { "element": "node", "id": 7288964597, "name": "Kailash Kanta Nursing Home", "amenity": "clinic", "water": null, "natural": null }, "geometry": { "type": "Point", "coordinates": [ 81.668609, 21.2413081 ] } },
{ "type": "Feature", "properties": { "element": "node", "id": 7288964599, "name": "Jeevan Anmol Hospital", "amenity": "hospital", "water": null, "natural": null }, "geometry": { "type": "Point", "coordinates": [ 81.6531985, 21.2250565 ] } },
{ "type": "Feature", "properties": { "element": "node", "id": 7288964602, "name": "Madhumeet Hospital", "amenity": "hospital", "water": null, "natural": null }, "geometry": { "type": "Point", "coordinates": [ 81.6698864, 21.2401655 ] } },
{ "type": "Feature", "properties": { "element": "node", "id": 7288964603, "name": "Shri Krishna Hospital", "amenity": "hospital", "water": null, "natural": null }, "geometry": { "type": "Point", "coordinates": [ 81.660207, 21.223641 ] } },
{ "type": "Feature", "properties": { "element": "node", "id": 7288964605, "name": "Dr Chakresh Jain Homoeopathic Clinic", "amenity": "clinic", "water": null, "natural": null }, "geometry": { "type": "Point", "coordinates": [ 81.5986345, 21.2388587 ] } },
{ "type": "Feature", "properties": { "element": "node", "id": 7288964608, "name": "Dr Lunia's Gastro, Liver & Advance Endoscopy Center", "amenity": "clinic", "water": null, "natural": null }, "geometry": { "type": "Point", "coordinates": [ 81.6393438, 21.233365 ] } },
{ "type": "Feature", "properties": { "element": "node", "id": 7288964610, "name": "Raipura Hospital", "amenity": "hospital", "water": null, "natural": null }, "geometry": { "type": "Point", "coordinates": [ 81.6035435, 21.2321504 ] } },
{ "type": "Feature", "properties": { "element": "node", "id": 7288964613, "name": "Awasthi Hospital", "amenity": "hospital", "water": null, "natural": null }, "geometry": { "type": "Point", "coordinates": [ 81.6540067, 21.231624 ] } },
{ "type": "Feature", "properties": { "element": "node", "id": 7288964616, "name": "Om Superspeciality Hospital", "amenity": "hospital", "water": null, "natural": null }, "geometry": { "type": "Point", "coordinates": [ 81.5986728, 21.2292542 ] } },
{ "type": "Feature", "properties": { "element": "node", "id": 7288964620, "name": "Saroj Nursing Home", "amenity": "clinic", "water": null, "natural": null }, "geometry": { "type": "Point", "coordinates": [ 81.6605063, 21.2226321 ] } },
{ "type": "Feature", "properties": { "element": "node", "id": 7288964622, "name": "Jain Dental Care & Implant Centre", "amenity": "clinic", "water": null, "natural": null }, "geometry": { "type": "Point", "coordinates": [ 81.641912, 21.235514 ] } },
{ "type": "Feature", "properties": { "element": "node", "id": 7288964628, "name": "Solanki Diabetes-Thyroid-Hormone Clinic", "amenity": "clinic", "water": null, "natural": null }, "geometry": { "type": "Point", "coordinates": [ 81.6505415, 21.2337331 ] } },
{ "type": "Feature", "properties": { "element": "node", "id": 7288964630, "name": "Dr Nisha Yadu Clinic", "amenity": "clinic", "water": null, "natural": null }, "geometry": { "type": "Point", "coordinates": [ 81.6473066, 21.2330248 ] } },
{ "type": "Feature", "properties": { "element": "node", "id": 7288964633, "name": "Women Care Clinic", "amenity": "clinic", "water": null, "natural": null }, "geometry": { "type": "Point", "coordinates": [ 81.639567, 21.2317874 ] } },
{ "type": "Feature", "properties": { "element": "node", "id": 7288964639, "name": "Dr. S B Mishra Clinic", "amenity": "clinic", "water": null, "natural": null }, "geometry": { "type": "Point", "coordinates": [ 81.6620938, 21.223313 ] } },
{ "type": "Feature", "properties": { "element": "node", "id": 7288964641, "name": "Kankali Hospital Parisar", "amenity": "hospital", "water": null, "natural": null }, "geometry": { "type": "Point", "coordinates": [ 81.62784, 21.23854 ] } },
{ "type": "Feature", "properties": { "element": "node", "id": 7288964642, "name": "Anjali Children Hospital", "amenity": "hospital", "water": null, "natural": null }, "geometry": { "type": "Point", "coordinates": [ 81.649675, 21.22115 ] } },
{ "type": "Feature", "properties": { "element": "node", "id": 7288964644, "name": "We Care Super Specialty Hospital", "amenity": "hospital", "water": null, "natural": null }, "geometry": { "type": "Point", "coordinates": [ 81.668942, 21.235399 ] } },
{ "type": "Feature", "properties": { "element": "node", "id": 7288964648, "name": "District Police Hospital", "amenity": "hospital", "water": null, "natural": null }, "geometry": { "type": "Point", "coordinates": [ 81.6449518, 21.2307216 ] } },
{ "type": "Feature", "properties": { "element": "node", "id": 7288964651, "name": "Bagrecha Nursing Home", "amenity": "clinic", "water": null, "natural": null }, "geometry": { "type": "Point", "coordinates": [ 81.6550941, 21.227375 ] } },
{ "type": "Feature", "properties": { "element": "node", "id": 7288964653, "name": "Dr Manoj Agrwal", "amenity": "hospital", "water": null, "natural": null }, "geometry": { "type": "Point", "coordinates": [ 81.6504829, 21.2437894 ] } },
{ "type": "Feature", "properties": { "element": "node", "id": 7288964655, "name": "Sadbhavna Clinic", "amenity": "clinic", "water": null, "natural": null }, "geometry": { "type": "Point", "coordinates": [ 81.657847, 21.225292 ] } },
{ "type": "Feature", "properties": { "element": "node", "id": 7288964658, "name": "Avanti Hospital", "amenity": "hospital", "water": null, "natural": null }, "geometry": { "type": "Point", "coordinates": [ 81.6696319, 21.2408235 ] } },
{ "type": "Feature", "properties": { "element": "node", "id": 7288964661, "name": "Dr. Chandrawansi Clinic", "amenity": "clinic", "water": null, "natural": null }, "geometry": { "type": "Point", "coordinates": [ 81.6112236, 21.2341727 ] } },
{ "type": "Feature", "properties": { "element": "node", "id": 7288964664, "name": "Anand Shree Hospital", "amenity": "hospital", "water": null, "natural": null }, "geometry": { "type": "Point", "coordinates": [ 81.604322, 21.233519 ] } },
{ "type": "Feature", "properties": { "element": "node", "id": 7288964666, "name": "Life Line Hospital", "amenity": "hospital", "water": null, "natural": null }, "geometry": { "type": "Point", "coordinates": [ 81.605519, 21.2328853 ] } },
{ "type": "Feature", "properties": { "element": "node", "id": 7288964670, "name": "Memon Nursing Home", "amenity": "clinic", "water": null, "natural": null }, "geometry": { "type": "Point", "coordinates": [ 81.6516221, 21.2317325 ] } },
{ "type": "Feature", "properties": { "element": "node", "id": 7288964673, "name": "Shri Jagannath Multispeciality Hospital", "amenity": "hospital", "water": null, "natural": null }, "geometry": { "type": "Point", "coordinates": [ 81.600057, 21.22998 ] } },
{ "type": "Feature", "properties": { "element": "node", "id": 7288964676, "name": "Gayatri Hospital", "amenity": "hospital", "water": null, "natural": null }, "geometry": { "type": "Point", "coordinates": [ 81.6038105, 21.239345 ] } },
{ "type": "Feature", "properties": { "element": "node", "id": 7288964677, "name": "Chhatre Dental Clinic", "amenity": "clinic", "water": null, "natural": null }, "geometry": { "type": "Point", "coordinates": [ 81.6613465, 21.2230034 ] } },
{ "type": "Feature", "properties": { "element": "node", "id": 7288964679, "name": "Vijaya durga hospital", "amenity": "hospital", "water": null, "natural": null }, "geometry": { "type": "Point", "coordinates": [ 81.63491, 21.235824 ] } },
{ "type": "Feature", "properties": { "element": "node", "id": 7288964681, "name": "Rajdhani Super Speciality Hospital", "amenity": "hospital", "water": null, "natural": null }, "geometry": { "type": "Point", "coordinates": [ 81.6483451, 21.2190325 ] } },
{ "type": "Feature", "properties": { "element": "node", "id": 7288964683, "name": "Dr Nigam Hospital", "amenity": "hospital", "water": null, "natural": null }, "geometry": { "type": "Point", "coordinates": [ 81.6517301, 21.2350371 ] } },
{ "type": "Feature", "properties": { "element": "node", "id": 7288964686, "name": "Shubham Hospital", "amenity": "hospital", "water": null, "natural": null }, "geometry": { "type": "Point", "coordinates": [ 81.610285, 21.23422 ] } },
{ "type": "Feature", "properties": { "element": "node", "id": 7291844243, "name": "Virdi Hospital", "amenity": "hospital", "water": null, "natural": null }, "geometry": { "type": "Point", "coordinates": [ 81.628347, 21.2496368 ] } },
{ "type": "Feature", "properties": { "element": "node", "id": 7291844245, "name": "DKS Super Speciality Hospital", "amenity": "hospital", "water": null, "natural": null }, "geometry": { "type": "Point", "coordinates": [ 81.6412379, 21.2449632 ] } },
{ "type": "Feature", "properties": { "element": "node", "id": 7291844258, "name": "Mamta Hospital", "amenity": "hospital", "water": null, "natural": null }, "geometry": { "type": "Point", "coordinates": [ 81.631597, 21.246905 ] } },
{ "type": "Feature", "properties": { "element": "node", "id": 7291844264, "name": "Om Hospital , Burn Plastic & Cosmetic Surgery Center", "amenity": "hospital", "water": null, "natural": null }, "geometry": { "type": "Point", "coordinates": [ 81.6301308, 21.2451108 ] } },
{ "type": "Feature", "properties": { "element": "node", "id": 7291844275, "name": "Shri Mahaveer Hospital", "amenity": "hospital", "water": null, "natural": null }, "geometry": { "type": "Point", "coordinates": [ 81.6625026, 21.25007 ] } },
{ "type": "Feature", "properties": { "element": "node", "id": 7291844281, "name": "Lotus Hospital & Advance Urology Center", "amenity": "hospital", "water": null, "natural": null }, "geometry": { "type": "Point", "coordinates": [ 81.6485864, 21.2468938 ] } },
{ "type": "Feature", "properties": { "element": "node", "id": 7291844299, "name": "Chand Rani Sardari Lal Speciality EYE And ENT Hospital", "amenity": "hospital", "water": null, "natural": null }, "geometry": { "type": "Point", "coordinates": [ 81.6546202, 21.2463682 ] } },
{ "type": "Feature", "properties": { "element": "node", "id": 7291844302, "name": "Petals Newborn And Children Hospital", "amenity": "hospital", "water": null, "natural": null }, "geometry": { "type": "Point", "coordinates": [ 81.6245086, 21.245081 ] } },
{ "type": "Feature", "properties": { "element": "node", "id": 7291844307, "name": "Shashwat Hospital", "amenity": "hospital", "water": null, "natural": null }, "geometry": { "type": "Point", "coordinates": [ 81.630207, 21.244077 ] } },
{ "type": "Feature", "properties": { "element": "node", "id": 7291844314, "name": "Sagar Multi Speciality Hospital", "amenity": "hospital", "water": null, "natural": null }, "geometry": { "type": "Point", "coordinates": [ 81.667901, 21.249743 ] } },
{ "type": "Feature", "properties": { "element": "node", "id": 7291844317, "name": "Dhanwantari Clinic", "amenity": "clinic", "water": null, "natural": null }, "geometry": { "type": "Point", "coordinates": [ 81.660284, 21.24742 ] } },
{ "type": "Feature", "properties": { "element": "node", "id": 7291844320, "name": "Sankalp Hospital", "amenity": "hospital", "water": null, "natural": null }, "geometry": { "type": "Point", "coordinates": [ 81.5723744, 21.2467743 ] } },
{ "type": "Feature", "properties": { "element": "node", "id": 7291844323, "name": "Shreyansh Diabetic & Heart Clinic", "amenity": "clinic", "water": null, "natural": null }, "geometry": { "type": "Point", "coordinates": [ 81.6686059, 21.2456733 ] } },
{ "type": "Feature", "properties": { "element": "node", "id": 7736593775, "name": "Shri Venkatesh School", "amenity": "school", "water": null, "natural": null }, "geometry": { "type": "Point", "coordinates": [ 81.6748896, 21.2783652 ] } },
{ "type": "Feature", "properties": { "element": "node", "id": 7736595892, "name": "Mahi Clinic", "amenity": "clinic", "water": null, "natural": null }, "geometry": { "type": "Point", "coordinates": [ 81.6714857, 21.2760779 ] } },
{ "type": "Feature", "properties": { "element": "node", "id": 7736595897, "name": "Om shanti Niketan Higher Middle School", "amenity": "school", "water": null, "natural": null }, "geometry": { "type": "Point", "coordinates": [ 81.6689222, 21.2785988 ] } },
{ "type": "Feature", "properties": { "element": "node", "id": 7736595907, "name": "Government Higher Secondary School", "amenity": "school", "water": null, "natural": null }, "geometry": { "type": "Point", "coordinates": [ 81.6624217, 21.2661315 ] } },
{ "type": "Feature", "properties": { "element": "node", "id": 8322190354, "name": "Daffodils English School", "amenity": "school", "water": null, "natural": null }, "geometry": { "type": "Point", "coordinates": [ 81.6049235, 21.2574871 ] } },
{ "type": "Feature", "properties": { "element": "node", "id": 8499120298, "name": null, "amenity": "school", "water": null, "natural": null }, "geometry": { "type": "Point", "coordinates": [ 81.6057439, 21.2829638 ] } },
{ "type": "Feature", "properties": { "element": "node", "id": 9726231917, "name": "शासकीय महिला पालिटेक्निक महाविद्यालय रायपुर", "amenity": "college", "water": null, "natural": null }, "geometry": { "type": "Point", "coordinates": [ 81.6475721, 21.2321429 ] } },
{ "type": "Feature", "properties": { "element": "node", "id": 9726292317, "name": "सी जी कालेज ऑफ नर्सिंग", "amenity": "college", "water": null, "natural": null }, "geometry": { "type": "Point", "coordinates": [ 81.6608653, 21.2218868 ] } },
{ "type": "Feature", "properties": { "element": "node", "id": 9726304817, "name": "महाराना प्रताप कालेज ऑफ नसिंग", "amenity": "college", "water": null, "natural": null }, "geometry": { "type": "Point", "coordinates": [ 81.6622121, 21.2194297 ] } },
{ "type": "Feature", "properties": { "element": "node", "id": 9867587017, "name": "श्री नारायणा नर्सिंग इन्स्टीट्यूट , रायपुर", "amenity": "college", "water": null, "natural": null }, "geometry": { "type": "Point", "coordinates": [ 81.6370232, 21.1775812 ] } },
{ "type": "Feature", "properties": { "element": "node", "id": 9992154518, "name": "रामकृष्णा इंस्टिट्यूट ऑफ़ मेडिकल साइस", "amenity": "college", "water": null, "natural": null }, "geometry": { "type": "Point", "coordinates": [ 81.5928579, 21.2172166 ] } },
{ "type": "Feature", "properties": { "element": "node", "id": 9992380517, "name": "आदर्श नर्सिंग इंस्टीट्यूट, रायपुर & आदर्श महाविद्यालय, रायपुर", "amenity": "college", "water": null, "natural": null }, "geometry": { "type": "Point", "coordinates": [ 81.627426, 21.1580778 ] } },
{ "type": "Feature", "properties": { "element": "node", "id": 10001441517, "name": "स्पेक्ट्रम कॉलेज़ ऑफ एजुकेशन, नरदहा, रायपुर", "amenity": "college", "water": null, "natural": null }, "geometry": { "type": "Point", "coordinates": [ 81.773038, 21.310202 ] } },
{ "type": "Feature", "properties": { "element": "node", "id": 10181792021, "name": null, "amenity": "school", "water": null, "natural": null }, "geometry": { "type": "Point", "coordinates": [ 81.653817, 21.2587609 ] } },
{ "type": "Feature", "properties": { "element": "node", "id": 10939721749, "name": "A.S.M DENTAL CLINIC", "amenity": "hospital", "water": null, "natural": null }, "geometry": { "type": "Point", "coordinates": [ 81.5978925, 21.2371135 ] } },
{ "type": "Feature", "properties": { "element": "node", "id": 10939807399, "name": "Shreevedam Dental and Aryuvedic Clinic", "amenity": "hospital", "water": null, "natural": null }, "geometry": { "type": "Point", "coordinates": [ 81.5954368, 21.2345837 ] } },
{ "type": "Feature", "properties": { "element": "node", "id": 12276858430, "name": "Campion School, Raipur", "amenity": "school", "water": null, "natural": null }, "geometry": { "type": "Point", "coordinates": [ 81.7170313, 21.2878259 ] } },
{ "type": "Feature", "properties": { "element": "node", "id": 12313212501, "name": "Excel Educational Institute", "amenity": "school", "water": null, "natural": null }, "geometry": { "type": "Point", "coordinates": [ 81.6466481, 21.2212188 ] } },
{ "type": "Feature", "properties": { "element": "node", "id": 12313217701, "name": "Allen Carrier Institute Raipur", "amenity": "school", "water": null, "natural": null }, "geometry": { "type": "Point", "coordinates": [ 81.6453632, 21.2234141 ] } },
{ "type": "Feature", "properties": { "element": "node", "id": 12595619849, "name": "Dental Clinic and Child Care", "amenity": "clinic", "water": null, "natural": null }, "geometry": { "type": "Point", "coordinates": [ 81.6307696, 21.27281 ] } },
{ "type": "Feature", "properties": { "element": "node", "id": 13461018389, "name": "Tilak Bharti Higher Secondary School", "amenity": "school", "water": null, "natural": null }, "geometry": { "type": "Point", "coordinates": [ 81.6186763, 21.2648527 ] } },
{ "type": "Feature", "properties": { "element": "node", "id": 13461751586, "name": "Rajdeep Public School", "amenity": "school", "water": null, "natural": null }, "geometry": { "type": "Point", "coordinates": [ 81.6171673, 21.2636222 ] } },
{ "type": "Feature", "properties": { "element": "node", "id": 13466980819, "name": null, "amenity": "college", "water": null, "natural": null }, "geometry": { "type": "Point", "coordinates": [ 81.8248939, 21.1657482 ] } },
{ "type": "Feature", "properties": { "element": "relation", "id": 3325981, "name": null, "amenity": null, "water": "river", "natural": "water" }, "geometry": { "type": "Polygon", "coordinates": [ [ [ 81.7963747, 21.7689732 ], [ 81.794532, 21.7677901 ], [ 81.7932581, 21.767019 ], [ 81.7919614, 21.7664485 ], [ 81.7904145, 21.7654661 ], [ 81.7889699, 21.7642196 ], [ 81.7881509, 21.7632372 ], [ 81.7873775, 21.7627195 ], [ 81.7859329, 21.7619273 ], [ 81.7850457, 21.7616103 ], [ 81.7841471, 21.7614941 ], [ 81.7835556, 21.7615153 ], [ 81.7825774, 21.7615892 ], [ 81.7816106, 21.7617899 ], [ 81.78053, 21.7623498 ], [ 81.7790854, 21.7635013 ], [ 81.7771176, 21.7650013 ], [ 81.77482, 21.7668288 ], [ 81.7742513, 21.7676105 ], [ 81.7736029, 21.7678957 ], [ 81.7730569, 21.7679274 ], [ 81.7724996, 21.7678218 ], [ 81.7717261, 21.7677162 ], [ 81.7705318, 21.7673253 ], [ 81.7699744, 21.7669661 ], [ 81.7692237, 21.7660471 ], [ 81.7684389, 21.7650647 ], [ 81.7677337, 21.7640928 ], [ 81.7670739, 21.7625083 ], [ 81.7653223, 21.7596877 ], [ 81.7642985, 21.7583038 ], [ 81.7622284, 21.7566663 ], [ 81.7602492, 21.7552296 ], [ 81.757053, 21.7530216 ], [ 81.7540615, 21.7512996 ], [ 81.7519913, 21.7501586 ], [ 81.7495003, 21.7491761 ], [ 81.7481922, 21.748669 ], [ 81.7471685, 21.7484048 ], [ 81.7460083, 21.7482147 ], [ 81.7437561, 21.7483309 ], [ 81.7426528, 21.748669 ], [ 81.7418225, 21.7489436 ], [ 81.7413106, 21.7488908 ], [ 81.7406736, 21.7489119 ], [ 81.7402528, 21.7494085 ], [ 81.7397296, 21.749979 ], [ 81.7390926, 21.7509404 ], [ 81.7383419, 21.7528948 ], [ 81.7381485, 21.7542365 ], [ 81.7382167, 21.7561593 ], [ 81.738194, 21.7579763 ], [ 81.737921, 21.7588743 ], [ 81.7376025, 21.7595292 ], [ 81.7371248, 21.7602687 ], [ 81.7363627, 21.7609976 ], [ 81.7345428, 21.7625611 ], [ 81.7335077, 21.7632372 ], [ 81.7326887, 21.7634484 ], [ 81.7321086, 21.7634696 ], [ 81.7313807, 21.7634696 ], [ 81.7299133, 21.7631527 ], [ 81.7290375, 21.7627512 ], [ 81.7276839, 21.7620329 ], [ 81.7245446, 21.7608709 ], [ 81.7224061, 21.7604906 ], [ 81.7210753, 21.7601842 ], [ 81.7198128, 21.7599729 ], [ 81.7188914, 21.7599307 ], [ 81.7175378, 21.7598778 ], [ 81.7149786, 21.7600363 ], [ 81.7130677, 21.7602793 ], [ 81.7112477, 21.7607441 ], [ 81.7100079, 21.7609554 ], [ 81.7074828, 21.7610927 ], [ 81.7061519, 21.7611983 ], [ 81.7049007, 21.7610716 ], [ 81.7032742, 21.7606913 ], [ 81.7013064, 21.7601314 ], [ 81.7006239, 21.7597194 ], [ 81.6998846, 21.7589693 ], [ 81.699259, 21.757765 ], [ 81.6987016, 21.7565924 ], [ 81.698167, 21.7547436 ], [ 81.697894, 21.7528209 ], [ 81.6979737, 21.7516271 ], [ 81.6985651, 21.7496092 ], [ 81.6991339, 21.7486161 ], [ 81.7011585, 21.745996 ], [ 81.7030581, 21.7437985 ], [ 81.7059927, 21.7412417 ], [ 81.7080287, 21.7393187 ], [ 81.7105766, 21.7370049 ], [ 81.7119871, 21.7355045 ], [ 81.7135795, 21.7334125 ], [ 81.714535, 21.731817 ], [ 81.7154677, 21.729429 ], [ 81.7162639, 21.7272735 ], [ 81.7173445, 21.7239556 ], [ 81.7179815, 21.7220219 ], [ 81.7190393, 21.7192639 ], [ 81.7196876, 21.7183129 ], [ 81.7208933, 21.7166221 ], [ 81.7227246, 21.7144558 ], [ 81.7239986, 21.71323 ], [ 81.7261597, 21.7116554 ], [ 81.7274223, 21.7109368 ], [ 81.7279455, 21.710419 ], [ 81.7283891, 21.7098272 ], [ 81.7285598, 21.7092883 ], [ 81.7286053, 21.708147 ], [ 81.7284233, 21.7073544 ], [ 81.7282754, 21.7067943 ], [ 81.7277977, 21.706361 ], [ 81.7273199, 21.7061074 ], [ 81.7268536, 21.7058114 ], [ 81.7264193, 21.7054142 ], [ 81.7258, 21.7040766 ], [ 81.7251163, 21.7026269 ], [ 81.7244407, 21.7011921 ], [ 81.7240707, 21.6991594 ], [ 81.7240225, 21.698031 ], [ 81.7241592, 21.6967904 ], [ 81.7243683, 21.6959235 ], [ 81.7244085, 21.6954004 ], [ 81.7246177, 21.6941599 ], [ 81.7248187, 21.6934723 ], [ 81.7251002, 21.6929193 ], [ 81.7253174, 21.6921869 ], [ 81.7256954, 21.6905726 ], [ 81.7257196, 21.6897954 ], [ 81.7253496, 21.6887715 ], [ 81.7251646, 21.6880839 ], [ 81.7248348, 21.6875383 ], [ 81.7240868, 21.6869105 ], [ 81.7233388, 21.6860212 ], [ 81.7225506, 21.6852364 ], [ 81.7209742, 21.6842947 ], [ 81.7197034, 21.6835698 ], [ 81.7189313, 21.6831064 ], [ 81.7178535, 21.6825384 ], [ 81.7170009, 21.6817088 ], [ 81.7147971, 21.6803261 ], [ 81.7128507, 21.6792797 ], [ 81.7121027, 21.6789359 ], [ 81.7108963, 21.6784575 ], [ 81.7094566, 21.6779045 ], [ 81.7081858, 21.6776204 ], [ 81.7066978, 21.6773588 ], [ 81.7032876, 21.6771122 ], [ 81.7018559, 21.6771047 ], [ 81.7003921, 21.6770972 ], [ 81.6989444, 21.6770449 ], [ 81.6982688, 21.6769627 ], [ 81.6971427, 21.6768356 ], [ 81.6955583, 21.6765068 ], [ 81.6937406, 21.6761256 ], [ 81.6919952, 21.6759761 ], [ 81.6906842, 21.6758939 ], [ 81.6882874, 21.67558 ], [ 81.6874348, 21.6754828 ], [ 81.6851345, 21.6750717 ], [ 81.6827377, 21.6740403 ], [ 81.6820541, 21.6737114 ], [ 81.6811532, 21.6731882 ], [ 81.6806707, 21.672949 ], [ 81.680357, 21.6728668 ], [ 81.6796653, 21.6727173 ], [ 81.6779521, 21.6718353 ], [ 81.6769709, 21.6710953 ], [ 81.6763918, 21.670445 ], [ 81.6757162, 21.6694808 ], [ 81.6755714, 21.6689352 ], [ 81.6754508, 21.6682326 ], [ 81.6752738, 21.6676271 ], [ 81.6743891, 21.6660499 ], [ 81.6740111, 21.6653249 ], [ 81.6737135, 21.6645923 ], [ 81.6734641, 21.6637402 ], [ 81.6732228, 21.6630151 ], [ 81.672877, 21.662447 ], [ 81.6726518, 21.6620359 ], [ 81.6721129, 21.6617743 ], [ 81.6711397, 21.6610866 ], [ 81.6704641, 21.6607577 ], [ 81.6695874, 21.6601373 ], [ 81.6690887, 21.6597785 ], [ 81.6685659, 21.6594944 ], [ 81.6680914, 21.6593524 ], [ 81.667649, 21.6593449 ], [ 81.6670297, 21.659614 ], [ 81.6668608, 21.6598682 ], [ 81.6665311, 21.6604213 ], [ 81.6664667, 21.6610044 ], [ 81.666145, 21.6617743 ], [ 81.6657026, 21.662006 ], [ 81.6653085, 21.6621107 ], [ 81.662958, 21.6619462 ], [ 81.6619446, 21.661707 ], [ 81.661462, 21.6613781 ], [ 81.6606175, 21.6606605 ], [ 81.6598936, 21.6598981 ], [ 81.6591698, 21.6586348 ], [ 81.6590009, 21.6577078 ], [ 81.6590411, 21.6566538 ], [ 81.659033, 21.6557344 ], [ 81.659218, 21.6549794 ], [ 81.6600786, 21.6532525 ], [ 81.6605692, 21.6518546 ], [ 81.6614781, 21.6495148 ], [ 81.66221, 21.6483336 ], [ 81.6633843, 21.6468534 ], [ 81.6650251, 21.6454704 ], [ 81.6666658, 21.6443341 ], [ 81.6678964, 21.6436239 ], [ 81.6694407, 21.642951 ], [ 81.670816, 21.6425473 ], [ 81.6717008, 21.6420614 ], [ 81.6725935, 21.6412913 ], [ 81.6742584, 21.6400877 ], [ 81.6759073, 21.6389737 ], [ 81.6780708, 21.6374635 ], [ 81.6805481, 21.6355122 ], [ 81.6812156, 21.6349216 ], [ 81.6829851, 21.6339646 ], [ 81.684843, 21.6329403 ], [ 81.6866125, 21.6319011 ], [ 81.6884383, 21.6307422 ], [ 81.6901434, 21.6295833 ], [ 81.6913096, 21.6286861 ], [ 81.6922426, 21.6280431 ], [ 81.6932158, 21.6269814 ], [ 81.694374, 21.625845 ], [ 81.6948405, 21.6251646 ], [ 81.6956689, 21.6236916 ], [ 81.6964089, 21.6218523 ], [ 81.6970925, 21.6200428 ], [ 81.6973821, 21.618839 ], [ 81.6980818, 21.6172538 ], [ 81.6987253, 21.6159004 ], [ 81.6990229, 21.6144348 ], [ 81.6991033, 21.6133805 ], [ 81.6990792, 21.6126552 ], [ 81.6989907, 21.6116233 ], [ 81.6990872, 21.6107185 ], [ 81.6990631, 21.6100455 ], [ 81.6987816, 21.6085574 ], [ 81.6984759, 21.6073535 ], [ 81.6979371, 21.6053569 ], [ 81.6971569, 21.6030088 ], [ 81.6965504, 21.601807 ], [ 81.6961756, 21.6010645 ], [ 81.6956609, 21.6000699 ], [ 81.6948888, 21.5988734 ], [ 81.6931434, 21.5959942 ], [ 81.6909718, 21.592786 ], [ 81.6888967, 21.5895477 ], [ 81.687449, 21.58699 ], [ 81.6869825, 21.5856363 ], [ 81.6862264, 21.5834823 ], [ 81.6859932, 21.5820164 ], [ 81.6852934, 21.5802738 ], [ 81.685028, 21.5795483 ], [ 81.6841996, 21.5777907 ], [ 81.6833953, 21.5755618 ], [ 81.6828725, 21.5746942 ], [ 81.6824623, 21.5740285 ], [ 81.6814569, 21.5731609 ], [ 81.6805239, 21.572383 ], [ 81.6796955, 21.5717697 ], [ 81.6769368, 21.5704981 ], [ 81.6756016, 21.5699671 ], [ 81.6738965, 21.5691667 ], [ 81.672682, 21.5688002 ], [ 81.671749, 21.5684935 ], [ 81.6703093, 21.5680148 ], [ 81.6693039, 21.5678652 ], [ 81.6686525, 21.567753 ], [ 81.668186, 21.5676333 ], [ 81.6678321, 21.5675361 ], [ 81.6663848, 21.5676304 ], [ 81.6661109, 21.5676483 ], [ 81.6654916, 21.5676782 ], [ 81.6656765, 21.5691144 ], [ 81.6663119, 21.5690545 ], [ 81.6672932, 21.5692864 ], [ 81.6679527, 21.5695108 ], [ 81.6687007, 21.5698698 ], [ 81.6695533, 21.5701316 ], [ 81.6699715, 21.5702214 ], [ 81.6714836, 21.5705729 ], [ 81.6723442, 21.5706776 ], [ 81.672859, 21.5708197 ], [ 81.6740976, 21.5711488 ], [ 81.6751271, 21.5716425 ], [ 81.6761888, 21.5722409 ], [ 81.6773067, 21.572944 ], [ 81.6787384, 21.5736096 ], [ 81.6795668, 21.5743127 ], [ 81.6806768, 21.5754047 ], [ 81.6816821, 21.5771175 ], [ 81.6821728, 21.5783516 ], [ 81.6829208, 21.5804084 ], [ 81.6831779, 21.5815455 ], [ 81.6834275, 21.5820463 ], [ 81.6840629, 21.5842078 ], [ 81.684642, 21.5852025 ], [ 81.685028, 21.5861523 ], [ 81.685768, 21.5877453 ], [ 81.6868055, 21.5897422 ], [ 81.6887117, 21.5929879 ], [ 81.6898619, 21.5950146 ], [ 81.6911407, 21.5966897 ], [ 81.6928941, 21.5990454 ], [ 81.6937064, 21.6002045 ], [ 81.6946072, 21.6019245 ], [ 81.6953633, 21.6035248 ], [ 81.6958861, 21.6049381 ], [ 81.69624, 21.6063515 ], [ 81.6964491, 21.60769 ], [ 81.6967869, 21.6099333 ], [ 81.696988, 21.6113989 ], [ 81.6971649, 21.6121018 ], [ 81.6971247, 21.6128197 ], [ 81.6971328, 21.6135674 ], [ 81.6969156, 21.6144647 ], [ 81.6966421, 21.6153845 ], [ 81.6960711, 21.6166706 ], [ 81.6956448, 21.6179492 ], [ 81.6951703, 21.6190558 ], [ 81.6947279, 21.6197661 ], [ 81.6944866, 21.6201923 ], [ 81.694181, 21.6208503 ], [ 81.6935938, 21.6219794 ], [ 81.6929745, 21.623086 ], [ 81.6925804, 21.6236168 ], [ 81.6915509, 21.6247907 ], [ 81.6909557, 21.6253814 ], [ 81.6900629, 21.6262861 ], [ 81.6892908, 21.6266674 ], [ 81.688398, 21.6272282 ], [ 81.6875133, 21.6281478 ], [ 81.6857197, 21.6293067 ], [ 81.6842157, 21.6303235 ], [ 81.6835803, 21.6308095 ], [ 81.6826232, 21.631445 ], [ 81.681095, 21.6324843 ], [ 81.6794301, 21.633673 ], [ 81.6777571, 21.6348244 ], [ 81.6757303, 21.6366711 ], [ 81.6740252, 21.6377775 ], [ 81.6724488, 21.6387868 ], [ 81.6716927, 21.6389737 ], [ 81.6710654, 21.6390261 ], [ 81.670615, 21.6390934 ], [ 81.6700117, 21.6393251 ], [ 81.6695854, 21.6397587 ], [ 81.6690948, 21.6405363 ], [ 81.6684192, 21.6409325 ], [ 81.6671082, 21.6419343 ], [ 81.6651859, 21.6431603 ], [ 81.6634004, 21.6444836 ], [ 81.6622341, 21.6455302 ], [ 81.660899, 21.6468385 ], [ 81.6597569, 21.6479374 ], [ 81.6585585, 21.6493802 ], [ 81.6579231, 21.6508006 ], [ 81.6572073, 21.6526695 ], [ 81.6567166, 21.6540599 ], [ 81.6561617, 21.655996 ], [ 81.6560491, 21.6568631 ], [ 81.6561456, 21.6581115 ], [ 81.6564593, 21.6597187 ], [ 81.6569418, 21.6611912 ], [ 81.6576175, 21.6624396 ], [ 81.6583896, 21.6634412 ], [ 81.6598212, 21.6646521 ], [ 81.6609633, 21.6652501 ], [ 81.6626122, 21.6655491 ], [ 81.663883, 21.6655865 ], [ 81.6652744, 21.6653847 ], [ 81.6661109, 21.6650259 ], [ 81.6669152, 21.6645176 ], [ 81.6675747, 21.6641364 ], [ 81.6680171, 21.6638673 ], [ 81.6694728, 21.6633889 ], [ 81.6704621, 21.6632469 ], [ 81.6711619, 21.6636131 ], [ 81.6717249, 21.6640915 ], [ 81.6725453, 21.6654819 ], [ 81.6727866, 21.666192 ], [ 81.6728107, 21.666319 ], [ 81.6724407, 21.6667451 ], [ 81.6721673, 21.667216 ], [ 81.6718616, 21.6679111 ], [ 81.6717571, 21.6683821 ], [ 81.6717008, 21.6690996 ], [ 81.6718214, 21.6696677 ], [ 81.6719823, 21.6700937 ], [ 81.6724648, 21.6705796 ], [ 81.6730842, 21.671185 ], [ 81.6737839, 21.6714691 ], [ 81.6741619, 21.6715812 ], [ 81.6750306, 21.6715961 ], [ 81.6753362, 21.6717755 ], [ 81.6757544, 21.6721492 ], [ 81.6764622, 21.672523 ], [ 81.6770172, 21.6730536 ], [ 81.6783765, 21.6739057 ], [ 81.6795829, 21.6746158 ], [ 81.6804355, 21.6750194 ], [ 81.6817223, 21.6753557 ], [ 81.6836446, 21.6762527 ], [ 81.68539, 21.676746 ], [ 81.6869825, 21.6772841 ], [ 81.6884865, 21.6775307 ], [ 81.6901032, 21.6777027 ], [ 81.6910603, 21.6777475 ], [ 81.6922909, 21.6778746 ], [ 81.6932158, 21.6779941 ], [ 81.69513, 21.6781959 ], [ 81.6965697, 21.678465 ], [ 81.698299, 21.6786294 ], [ 81.6995859, 21.6788686 ], [ 81.7004947, 21.6790106 ], [ 81.7016047, 21.6790181 ], [ 81.7026261, 21.6790181 ], [ 81.7035591, 21.679048 ], [ 81.7047254, 21.6790854 ], [ 81.7056825, 21.6792274 ], [ 81.7069131, 21.6794964 ], [ 81.7084332, 21.6797655 ], [ 81.709527, 21.6800495 ], [ 81.71157, 21.6809389 ], [ 81.7132107, 21.6817984 ], [ 81.7144735, 21.682643 ], [ 81.7160419, 21.6835698 ], [ 81.7175861, 21.6843396 ], [ 81.7197899, 21.6853485 ], [ 81.721125, 21.6862005 ], [ 81.7218972, 21.6869554 ], [ 81.7225084, 21.687643 ], [ 81.722621, 21.688196 ], [ 81.7225084, 21.6887341 ], [ 81.7223958, 21.6894292 ], [ 81.7222109, 21.6902064 ], [ 81.7219052, 21.6908192 ], [ 81.7215433, 21.6912751 ], [ 81.7212698, 21.6918805 ], [ 81.7210124, 21.6924783 ], [ 81.7208596, 21.6932406 ], [ 81.7208677, 21.6937189 ], [ 81.7210285, 21.6943915 ], [ 81.7211733, 21.6948474 ], [ 81.7220372, 21.6977465 ], [ 81.7226969, 21.7004521 ], [ 81.7234476, 21.7031998 ], [ 81.7244713, 21.7058207 ], [ 81.7248808, 21.7077018 ], [ 81.7247443, 21.7091813 ], [ 81.7244031, 21.7098154 ], [ 81.7233794, 21.7110624 ], [ 81.7220372, 21.7126686 ], [ 81.720604, 21.7143806 ], [ 81.7194666, 21.7157121 ], [ 81.7185338, 21.7168111 ], [ 81.7179196, 21.7182905 ], [ 81.7169869, 21.7208477 ], [ 81.7154855, 21.7244615 ], [ 81.714257, 21.7280964 ], [ 81.7127328, 21.7316044 ], [ 81.7116181, 21.7332738 ], [ 81.7102304, 21.734901 ], [ 81.7066816, 21.7382609 ], [ 81.7022, 21.7422969 ], [ 81.6997886, 21.7450227 ], [ 81.6981962, 21.7467132 ], [ 81.696763, 21.7486148 ], [ 81.6961715, 21.7495657 ], [ 81.6958303, 21.7508968 ], [ 81.695671, 21.7520167 ], [ 81.6956483, 21.7526928 ], [ 81.6957393, 21.7542986 ], [ 81.696126, 21.755841 ], [ 81.6972862, 21.7591371 ], [ 81.6982644, 21.7608273 ], [ 81.6992881, 21.7614823 ], [ 81.7001298, 21.7619471 ], [ 81.7024418, 21.7628095 ], [ 81.7035437, 21.7629066 ], [ 81.7044928, 21.763056 ], [ 81.7059486, 21.763183 ], [ 81.7072676, 21.7632651 ], [ 81.7083695, 21.7633921 ], [ 81.7097449, 21.7633398 ], [ 81.7112972, 21.7631083 ], [ 81.7133321, 21.7627572 ], [ 81.7142087, 21.762563 ], [ 81.7155761, 21.7620326 ], [ 81.7167342, 21.7616517 ], [ 81.7174903, 21.7615098 ], [ 81.7183026, 21.7615023 ], [ 81.7196378, 21.7615023 ], [ 81.7211338, 21.7618011 ], [ 81.7224046, 21.7620775 ], [ 81.7240212, 21.7627647 ], [ 81.7259113, 21.7636984 ], [ 81.7275762, 21.7643931 ], [ 81.7297639, 21.7651027 ], [ 81.7304234, 21.7652969 ], [ 81.731646, 21.7655285 ], [ 81.7325146, 21.7655135 ], [ 81.7333028, 21.7654911 ], [ 81.7340991, 21.7652894 ], [ 81.7348873, 21.7650952 ], [ 81.7359651, 21.7648114 ], [ 81.7368418, 21.764281 ], [ 81.7374048, 21.7638702 ], [ 81.7385228, 21.7628468 ], [ 81.7390295, 21.7621447 ], [ 81.7394236, 21.7616069 ], [ 81.7402118, 21.7605163 ], [ 81.7403405, 21.7597543 ], [ 81.7405415, 21.7589326 ], [ 81.7407265, 21.7574013 ], [ 81.7407909, 21.7559521 ], [ 81.7407426, 21.7549063 ], [ 81.7407185, 21.7538306 ], [ 81.7407265, 21.7530014 ], [ 81.7408874, 21.7518734 ], [ 81.741193, 21.7512085 ], [ 81.7412895, 21.7508051 ], [ 81.741563, 21.7504839 ], [ 81.7419812, 21.7502448 ], [ 81.742496, 21.7500356 ], [ 81.7436703, 21.7498638 ], [ 81.7447883, 21.7501029 ], [ 81.7457775, 21.7502896 ], [ 81.7468955, 21.7504615 ], [ 81.7473057, 21.7510591 ], [ 81.7473379, 21.7513878 ], [ 81.7476274, 21.7515596 ], [ 81.7482226, 21.7516866 ], [ 81.7498071, 21.7518509 ], [ 81.7509412, 21.7517837 ], [ 81.7515444, 21.7521273 ], [ 81.7526704, 21.752725 ], [ 81.7547857, 21.7537783 ], [ 81.755783, 21.7542937 ], [ 81.7568045, 21.7549959 ], [ 81.7585579, 21.7562061 ], [ 81.7598367, 21.7570875 ], [ 81.7618073, 21.7585218 ], [ 81.7626679, 21.7593883 ], [ 81.7632228, 21.7600681 ], [ 81.7641236, 21.7614425 ], [ 81.7646625, 21.7625256 ], [ 81.765314, 21.7640569 ], [ 81.76644, 21.7662679 ], [ 81.7667618, 21.7667609 ], [ 81.7682578, 21.7675901 ], [ 81.7699066, 21.7685237 ], [ 81.7710808, 21.7692408 ], [ 81.7720943, 21.7696815 ], [ 81.7730996, 21.7697413 ], [ 81.773719, 21.7697114 ], [ 81.7744187, 21.7695471 ], [ 81.7752471, 21.769196 ], [ 81.7757458, 21.7685163 ], [ 81.7765903, 21.7679561 ], [ 81.7770729, 21.7676199 ], [ 81.7778691, 21.7670971 ], [ 81.7788182, 21.7661559 ], [ 81.7794536, 21.7651998 ], [ 81.7804831, 21.7645948 ], [ 81.7819228, 21.7638328 ], [ 81.7832097, 21.7634071 ], [ 81.7841025, 21.7633772 ], [ 81.7845529, 21.7634594 ], [ 81.7854859, 21.7639075 ], [ 81.7861856, 21.7649533 ], [ 81.7866199, 21.765775 ], [ 81.7867245, 21.7664472 ], [ 81.787199, 21.7669253 ], [ 81.7878103, 21.7675079 ], [ 81.7887272, 21.768098 ], [ 81.7896763, 21.7684715 ], [ 81.7905128, 21.7687777 ], [ 81.7917996, 21.7691885 ], [ 81.7932313, 21.7697487 ], [ 81.7964405, 21.7708243 ], [ 81.7979729, 21.7714744 ], [ 81.7984393, 21.7697843 ], [ 81.7963747, 21.7689732 ] ], [ [ 81.6674114, 21.6605998 ], [ 81.6673858, 21.6604413 ], [ 81.6674199, 21.6602061 ], [ 81.6675138, 21.660066 ], [ 81.6677214, 21.6599576 ], [ 81.6678095, 21.6599074 ], [ 81.6679631, 21.6598546 ], [ 81.6681195, 21.6598255 ], [ 81.6682901, 21.6598572 ], [ 81.6683925, 21.659918 ], [ 81.6685091, 21.6599946 ], [ 81.6686001, 21.6601189 ], [ 81.6686683, 21.6602616 ], [ 81.6687678, 21.6603963 ], [ 81.6688076, 21.6605047 ], [ 81.6686114, 21.6605787 ], [ 81.6681735, 21.6605787 ], [ 81.6680967, 21.6605311 ], [ 81.6678863, 21.6605285 ], [ 81.6675877, 21.6605946 ], [ 81.6674114, 21.6605998 ] ], [ [ 81.673486, 21.6693798 ], [ 81.6737112, 21.6696489 ], [ 81.67386, 21.6698545 ], [ 81.674049, 21.6700899 ], [ 81.674419, 21.6704711 ], [ 81.6747126, 21.6708299 ], [ 81.6748131, 21.6709869 ], [ 81.6748573, 21.6711289 ], [ 81.6747126, 21.6711513 ], [ 81.6745879, 21.6711177 ], [ 81.6741737, 21.6709869 ], [ 81.6738439, 21.6708673 ], [ 81.6734739, 21.6707402 ], [ 81.673305, 21.6706094 ], [ 81.6730115, 21.6703104 ], [ 81.6729069, 21.670146 ], [ 81.6727782, 21.6700264 ], [ 81.6725369, 21.6699143 ], [ 81.6724645, 21.6695854 ], [ 81.6723922, 21.669178 ], [ 81.6724364, 21.6688641 ], [ 81.6725168, 21.6687108 ], [ 81.672734, 21.6686137 ], [ 81.6729713, 21.6687445 ], [ 81.6731482, 21.6689837 ], [ 81.673486, 21.6693798 ] ] ] } },
{ "type": "Feature", "properties": { "element": "relation", "id": 5407271, "name": null, "amenity": null, "water": null, "natural": "water" }, "geometry": { "type": "Polygon", "coordinates": [ [ [ 81.5978639, 21.3144419 ], [ 81.5988179, 21.314212 ], [ 81.5988131, 21.3141722 ], [ 81.5988891, 21.3141567 ], [ 81.5989009, 21.3141855 ], [ 81.5995179, 21.3140639 ], [ 81.5993803, 21.3139754 ], [ 81.5993993, 21.3136925 ], [ 81.5993565, 21.3136814 ], [ 81.5993684, 21.3136018 ], [ 81.5994254, 21.3136062 ], [ 81.5994942, 21.3132238 ], [ 81.5991667, 21.3131729 ], [ 81.5991145, 21.3131442 ], [ 81.5990599, 21.3130602 ], [ 81.599086, 21.3122776 ], [ 81.5978592, 21.312638 ], [ 81.5977548, 21.3144883 ], [ 81.5978639, 21.3144419 ] ], [ [ 81.5985924, 21.3141213 ], [ 81.5985841, 21.314097 ], [ 81.5985853, 21.3140097 ], [ 81.5986719, 21.3139511 ], [ 81.5987218, 21.3139511 ], [ 81.5987431, 21.3139611 ], [ 81.5987704, 21.3139931 ], [ 81.5987787, 21.3140373 ], [ 81.5987728, 21.3141247 ], [ 81.5986719, 21.3141766 ], [ 81.5986292, 21.3141722 ], [ 81.5985924, 21.3141213 ] ] ] } },
{ "type": "Feature", "properties": { "element": "relation", "id": 8942999, "name": null, "amenity": null, "water": "river", "natural": "water" }, "geometry": { "type": "Polygon", "coordinates": [ [ [ 81.8203891, 20.8969007 ], [ 81.8153332, 20.8954718 ], [ 81.8146169, 20.8967041 ], [ 81.8140697, 20.8982075 ], [ 81.8132329, 20.8993301 ], [ 81.8128359, 20.9002121 ], [ 81.8126106, 20.9010541 ], [ 81.812557, 20.901886 ], [ 81.8120849, 20.9064563 ], [ 81.8118489, 20.9075888 ], [ 81.8116557, 20.9087013 ], [ 81.8115699, 20.909934 ], [ 81.8117309, 20.9110766 ], [ 81.8119847, 20.9118004 ], [ 81.8141234, 20.9157669 ], [ 81.814177, 20.9161227 ], [ 81.8141234, 20.9164684 ], [ 81.8135118, 20.917185 ], [ 81.8125623, 20.9179617 ], [ 81.8119615, 20.9185279 ], [ 81.8113017, 20.9193346 ], [ 81.8112105, 20.9197505 ], [ 81.8113285, 20.9202015 ], [ 81.8117684, 20.920898 ], [ 81.8124175, 20.9214241 ], [ 81.8134582, 20.9217699 ], [ 81.8150836, 20.9223611 ], [ 81.8176424, 20.924646 ], [ 81.8199706, 20.9264498 ], [ 81.8204588, 20.926535 ], [ 81.8211937, 20.9266553 ], [ 81.8218267, 20.927016 ], [ 81.8224704, 20.9276073 ], [ 81.8231678, 20.9287046 ], [ 81.8236452, 20.9300123 ], [ 81.8251097, 20.9330236 ], [ 81.8266976, 20.9361099 ], [ 81.8280709, 20.9378435 ], [ 81.8293261, 20.9387653 ], [ 81.8311179, 20.9402784 ], [ 81.8330973, 20.9419467 ], [ 81.8338644, 20.9424427 ], [ 81.8343151, 20.9427534 ], [ 81.8348354, 20.9429187 ], [ 81.8354738, 20.9428335 ], [ 81.8360317, 20.9426732 ], [ 81.8364662, 20.9426281 ], [ 81.8368471, 20.9426381 ], [ 81.8390626, 20.9427534 ], [ 81.8396956, 20.9428536 ], [ 81.840511, 20.9431041 ], [ 81.8418735, 20.9435449 ], [ 81.8422544, 20.9436552 ], [ 81.8425065, 20.9436952 ], [ 81.8430269, 20.9436902 ], [ 81.8434238, 20.9436552 ], [ 81.8439764, 20.9434498 ], [ 81.8441802, 20.9434397 ], [ 81.8444806, 20.9434798 ], [ 81.8457574, 20.9436952 ], [ 81.84598, 20.9436752 ], [ 81.8462267, 20.9436552 ], [ 81.8465245, 20.9437604 ], [ 81.8471843, 20.944081 ], [ 81.8476403, 20.9444718 ], [ 81.8482196, 20.9448125 ], [ 81.8490404, 20.9452183 ], [ 81.8495715, 20.9453786 ], [ 81.8518996, 20.9460825 ], [ 81.8521437, 20.9461752 ], [ 81.8524012, 20.9463555 ], [ 81.8527821, 20.9468214 ], [ 81.8530905, 20.9472197 ], [ 81.8532568, 20.9474978 ], [ 81.8537879, 20.9489757 ], [ 81.8546998, 20.9514455 ], [ 81.8550539, 20.9529835 ], [ 81.8553168, 20.9537951 ], [ 81.8554884, 20.9546367 ], [ 81.8554509, 20.9556086 ], [ 81.8552899, 20.9568159 ], [ 81.8551665, 20.9571916 ], [ 81.8552417, 20.9579981 ], [ 81.8555099, 20.9588698 ], [ 81.8558049, 20.9593607 ], [ 81.8562823, 20.960037 ], [ 81.8576342, 20.9616575 ], [ 81.8578783, 20.9618779 ], [ 81.8582806, 20.9622361 ], [ 81.8587044, 20.9625016 ], [ 81.858876, 20.9625592 ], [ 81.8589833, 20.9625742 ], [ 81.859104, 20.9626344 ], [ 81.8594366, 20.9628147 ], [ 81.8595949, 20.9628723 ], [ 81.8605471, 20.9630877 ], [ 81.8619257, 20.963491 ], [ 81.8621752, 20.963491 ], [ 81.8625051, 20.9634183 ], [ 81.8626177, 20.9634333 ], [ 81.863248, 20.9636337 ], [ 81.8645301, 20.9640545 ], [ 81.8662548, 20.9645204 ], [ 81.8683791, 20.9649812 ], [ 81.8691623, 20.9652167 ], [ 81.8699831, 20.9656625 ], [ 81.8711713, 20.9667846 ], [ 81.8712222, 20.9644502 ], [ 81.8711793, 20.9617352 ], [ 81.8696988, 20.9615448 ], [ 81.8692964, 20.9614947 ], [ 81.8691114, 20.9614521 ], [ 81.8690228, 20.9613945 ], [ 81.8689451, 20.9612618 ], [ 81.8688726, 20.9611516 ], [ 81.8686339, 20.9609938 ], [ 81.8683791, 20.9609211 ], [ 81.8678749, 20.9608535 ], [ 81.8662602, 20.9605329 ], [ 81.8636799, 20.959536 ], [ 81.8627089, 20.9588998 ], [ 81.8619311, 20.9580632 ], [ 81.8603504, 20.9554703 ], [ 81.8599355, 20.9544163 ], [ 81.8598497, 20.953735 ], [ 81.8601501, 20.9530035 ], [ 81.86059, 20.9518713 ], [ 81.8614483, 20.9488555 ], [ 81.8616307, 20.9474427 ], [ 81.8615019, 20.9460399 ], [ 81.8608475, 20.9445069 ], [ 81.8605524, 20.9441962 ], [ 81.8595707, 20.9435349 ], [ 81.8591201, 20.943074 ], [ 81.8577683, 20.9417213 ], [ 81.8571567, 20.9411802 ], [ 81.8564594, 20.9407293 ], [ 81.8558854, 20.9405139 ], [ 81.8548393, 20.940098 ], [ 81.8503654, 20.9389657 ], [ 81.8480962, 20.9387052 ], [ 81.8454409, 20.9385549 ], [ 81.8451887, 20.9384697 ], [ 81.8450171, 20.9383194 ], [ 81.8449688, 20.9379988 ], [ 81.8448615, 20.9377833 ], [ 81.8446362, 20.9377032 ], [ 81.8443894, 20.9376881 ], [ 81.8437242, 20.9377032 ], [ 81.8426299, 20.9376931 ], [ 81.8415248, 20.9376681 ], [ 81.8414256, 20.9377207 ], [ 81.8413854, 20.9377933 ], [ 81.841321, 20.938129 ], [ 81.8412673, 20.9387603 ], [ 81.8411869, 20.9389206 ], [ 81.8410635, 20.9390008 ], [ 81.8409428, 20.9390885 ], [ 81.8408275, 20.939111 ], [ 81.8392396, 20.939096 ], [ 81.8384242, 20.9389858 ], [ 81.8376195, 20.9387052 ], [ 81.8359244, 20.9370118 ], [ 81.8335962, 20.9347171 ], [ 81.8324375, 20.9329634 ], [ 81.8322283, 20.9325826 ], [ 81.8321425, 20.9321067 ], [ 81.8319762, 20.9316357 ], [ 81.831429, 20.9307037 ], [ 81.8311125, 20.9299722 ], [ 81.8304634, 20.9292006 ], [ 81.8298089, 20.9284741 ], [ 81.8288004, 20.9274419 ], [ 81.8262899, 20.9240748 ], [ 81.8254208, 20.9225014 ], [ 81.8244982, 20.9203969 ], [ 81.8239939, 20.9195351 ], [ 81.8236184, 20.9183224 ], [ 81.8235969, 20.9171699 ], [ 81.8235648, 20.9151155 ], [ 81.8229961, 20.9128104 ], [ 81.8223953, 20.9119886 ], [ 81.8218911, 20.9116378 ], [ 81.8212151, 20.9112069 ], [ 81.8206787, 20.910345 ], [ 81.8198204, 20.9085309 ], [ 81.8195522, 20.9073683 ], [ 81.8197131, 20.9063059 ], [ 81.8200993, 20.9055242 ], [ 81.8204105, 20.9048026 ], [ 81.8205821, 20.9041711 ], [ 81.8206358, 20.9037101 ], [ 81.8202817, 20.9026477 ], [ 81.8200457, 20.9021566 ], [ 81.8199277, 20.9010541 ], [ 81.8199706, 20.9002623 ], [ 81.8201101, 20.8996108 ], [ 81.8211079, 20.8971551 ], [ 81.8203891, 20.8969007 ] ], [ [ 81.8119562, 20.9190039 ], [ 81.8134797, 20.9182222 ], [ 81.8142414, 20.9178414 ], [ 81.8145847, 20.9174205 ], [ 81.8150192, 20.9169996 ], [ 81.8153572, 20.9169094 ], [ 81.8159044, 20.9170397 ], [ 81.8174815, 20.9183325 ], [ 81.8192518, 20.9199961 ], [ 81.8202495, 20.9217097 ], [ 81.8205607, 20.9230326 ], [ 81.8214995, 20.9254677 ], [ 81.821655, 20.9258786 ], [ 81.8215853, 20.9260089 ], [ 81.8213975, 20.926044 ], [ 81.8210489, 20.9259989 ], [ 81.8207431, 20.9259087 ], [ 81.8174279, 20.9237541 ], [ 81.8151963, 20.92185 ], [ 81.8135869, 20.9210884 ], [ 81.8127286, 20.920437 ], [ 81.8119454, 20.9195351 ], [ 81.8118677, 20.9194198 ], [ 81.8118542, 20.9192695 ], [ 81.8118677, 20.9191292 ], [ 81.8119562, 20.9190039 ] ], [ [ 81.8588144, 20.9543812 ], [ 81.8590504, 20.9542459 ], [ 81.8591604, 20.9542885 ], [ 81.8592596, 20.9543561 ], [ 81.8593937, 20.9546918 ], [ 81.8597317, 20.9555534 ], [ 81.8601876, 20.956345 ], [ 81.8610567, 20.9575623 ], [ 81.861679, 20.9583087 ], [ 81.861695, 20.958489 ], [ 81.8616199, 20.9586393 ], [ 81.8613893, 20.9587746 ], [ 81.8611801, 20.9587646 ], [ 81.8610352, 20.9587195 ], [ 81.8605095, 20.9582937 ], [ 81.8592542, 20.9572216 ], [ 81.858632, 20.9562097 ], [ 81.8584925, 20.9556486 ], [ 81.8584388, 20.9550675 ], [ 81.8585783, 20.9547219 ], [ 81.8588144, 20.9543812 ] ] ] } },
{ "type": "Feature", "properties": { "element": "relation", "id": 8942999, "name": null, "amenity": null, "water": "river", "natural": "water" }, "geometry": { "type": "Polygon", "coordinates": [ [ [ 81.8203891, 20.8969007 ], [ 81.8153332, 20.8954718 ], [ 81.8146169, 20.8967041 ], [ 81.8140697, 20.8982075 ], [ 81.8132329, 20.8993301 ], [ 81.8128359, 20.9002121 ], [ 81.8126106, 20.9010541 ], [ 81.812557, 20.901886 ], [ 81.8120849, 20.9064563 ], [ 81.8118489, 20.9075888 ], [ 81.8116557, 20.9087013 ], [ 81.8115699, 20.909934 ], [ 81.8117309, 20.9110766 ], [ 81.8119847, 20.9118004 ], [ 81.8141234, 20.9157669 ], [ 81.814177, 20.9161227 ], [ 81.8141234, 20.9164684 ], [ 81.8135118, 20.917185 ], [ 81.8125623, 20.9179617 ], [ 81.8119615, 20.9185279 ], [ 81.8113017, 20.9193346 ], [ 81.8112105, 20.9197505 ], [ 81.8113285, 20.9202015 ], [ 81.8117684, 20.920898 ], [ 81.8124175, 20.9214241 ], [ 81.8134582, 20.9217699 ], [ 81.8150836, 20.9223611 ], [ 81.8176424, 20.924646 ], [ 81.8199706, 20.9264498 ], [ 81.8204588, 20.926535 ], [ 81.8211937, 20.9266553 ], [ 81.8218267, 20.927016 ], [ 81.8224704, 20.9276073 ], [ 81.8231678, 20.9287046 ], [ 81.8236452, 20.9300123 ], [ 81.8251097, 20.9330236 ], [ 81.8266976, 20.9361099 ], [ 81.8280709, 20.9378435 ], [ 81.8293261, 20.9387653 ], [ 81.8311179, 20.9402784 ], [ 81.8330973, 20.9419467 ], [ 81.8338644, 20.9424427 ], [ 81.8343151, 20.9427534 ], [ 81.8348354, 20.9429187 ], [ 81.8354738, 20.9428335 ], [ 81.8360317, 20.9426732 ], [ 81.8364662, 20.9426281 ], [ 81.8368471, 20.9426381 ], [ 81.8390626, 20.9427534 ], [ 81.8396956, 20.9428536 ], [ 81.840511, 20.9431041 ], [ 81.8418735, 20.9435449 ], [ 81.8422544, 20.9436552 ], [ 81.8425065, 20.9436952 ], [ 81.8430269, 20.9436902 ], [ 81.8434238, 20.9436552 ], [ 81.8439764, 20.9434498 ], [ 81.8441802, 20.9434397 ], [ 81.8444806, 20.9434798 ], [ 81.8457574, 20.9436952 ], [ 81.84598, 20.9436752 ], [ 81.8462267, 20.9436552 ], [ 81.8465245, 20.9437604 ], [ 81.8471843, 20.944081 ], [ 81.8476403, 20.9444718 ], [ 81.8482196, 20.9448125 ], [ 81.8490404, 20.9452183 ], [ 81.8495715, 20.9453786 ], [ 81.8518996, 20.9460825 ], [ 81.8521437, 20.9461752 ], [ 81.8524012, 20.9463555 ], [ 81.8527821, 20.9468214 ], [ 81.8530905, 20.9472197 ], [ 81.8532568, 20.9474978 ], [ 81.8537879, 20.9489757 ], [ 81.8546998, 20.9514455 ], [ 81.8550539, 20.9529835 ], [ 81.8553168, 20.9537951 ], [ 81.8554884, 20.9546367 ], [ 81.8554509, 20.9556086 ], [ 81.8552899, 20.9568159 ], [ 81.8551665, 20.9571916 ], [ 81.8552417, 20.9579981 ], [ 81.8555099, 20.9588698 ], [ 81.8558049, 20.9593607 ], [ 81.8562823, 20.960037 ], [ 81.8576342, 20.9616575 ], [ 81.8578783, 20.9618779 ], [ 81.8582806, 20.9622361 ], [ 81.8587044, 20.9625016 ], [ 81.858876, 20.9625592 ], [ 81.8589833, 20.9625742 ], [ 81.859104, 20.9626344 ], [ 81.8594366, 20.9628147 ], [ 81.8595949, 20.9628723 ], [ 81.8605471, 20.9630877 ], [ 81.8619257, 20.963491 ], [ 81.8621752, 20.963491 ], [ 81.8625051, 20.9634183 ], [ 81.8626177, 20.9634333 ], [ 81.863248, 20.9636337 ], [ 81.8645301, 20.9640545 ], [ 81.8662548, 20.9645204 ], [ 81.8683791, 20.9649812 ], [ 81.8691623, 20.9652167 ], [ 81.8699831, 20.9656625 ], [ 81.8711713, 20.9667846 ], [ 81.8712222, 20.9644502 ], [ 81.8711793, 20.9617352 ], [ 81.8696988, 20.9615448 ], [ 81.8692964, 20.9614947 ], [ 81.8691114, 20.9614521 ], [ 81.8690228, 20.9613945 ], [ 81.8689451, 20.9612618 ], [ 81.8688726, 20.9611516 ], [ 81.8686339, 20.9609938 ], [ 81.8683791, 20.9609211 ], [ 81.8678749, 20.9608535 ], [ 81.8662602, 20.9605329 ], [ 81.8636799, 20.959536 ], [ 81.8627089, 20.9588998 ], [ 81.8619311, 20.9580632 ], [ 81.8603504, 20.9554703 ], [ 81.8599355, 20.9544163 ], [ 81.8598497, 20.953735 ], [ 81.8601501, 20.9530035 ], [ 81.86059, 20.9518713 ], [ 81.8614483, 20.9488555 ], [ 81.8616307, 20.9474427 ], [ 81.8615019, 20.9460399 ], [ 81.8608475, 20.9445069 ], [ 81.8605524, 20.9441962 ], [ 81.8595707, 20.9435349 ], [ 81.8591201, 20.943074 ], [ 81.8577683, 20.9417213 ], [ 81.8571567, 20.9411802 ], [ 81.8564594, 20.9407293 ], [ 81.8558854, 20.9405139 ], [ 81.8548393, 20.940098 ], [ 81.8503654, 20.9389657 ], [ 81.8480962, 20.9387052 ], [ 81.8454409, 20.9385549 ], [ 81.8451887, 20.9384697 ], [ 81.8450171, 20.9383194 ], [ 81.8449688, 20.9379988 ], [ 81.8448615, 20.9377833 ], [ 81.8446362, 20.9377032 ], [ 81.8443894, 20.9376881 ], [ 81.8437242, 20.9377032 ], [ 81.8426299, 20.9376931 ], [ 81.8415248, 20.9376681 ], [ 81.8414256, 20.9377207 ], [ 81.8413854, 20.9377933 ], [ 81.841321, 20.938129 ], [ 81.8412673, 20.9387603 ], [ 81.8411869, 20.9389206 ], [ 81.8410635, 20.9390008 ], [ 81.8409428, 20.9390885 ], [ 81.8408275, 20.939111 ], [ 81.8392396, 20.939096 ], [ 81.8384242, 20.9389858 ], [ 81.8376195, 20.9387052 ], [ 81.8359244, 20.9370118 ], [ 81.8335962, 20.9347171 ], [ 81.8324375, 20.9329634 ], [ 81.8322283, 20.9325826 ], [ 81.8321425, 20.9321067 ], [ 81.8319762, 20.9316357 ], [ 81.831429, 20.9307037 ], [ 81.8311125, 20.9299722 ], [ 81.8304634, 20.9292006 ], [ 81.8298089, 20.9284741 ], [ 81.8288004, 20.9274419 ], [ 81.8262899, 20.9240748 ], [ 81.8254208, 20.9225014 ], [ 81.8244982, 20.9203969 ], [ 81.8239939, 20.9195351 ], [ 81.8236184, 20.9183224 ], [ 81.8235969, 20.9171699 ], [ 81.8235648, 20.9151155 ], [ 81.8229961, 20.9128104 ], [ 81.8223953, 20.9119886 ], [ 81.8218911, 20.9116378 ], [ 81.8212151, 20.9112069 ], [ 81.8206787, 20.910345 ], [ 81.8198204, 20.9085309 ], [ 81.8195522, 20.9073683 ], [ 81.8197131, 20.9063059 ], [ 81.8200993, 20.9055242 ], [ 81.8204105, 20.9048026 ], [ 81.8205821, 20.9041711 ], [ 81.8206358, 20.9037101 ], [ 81.8202817, 20.9026477 ], [ 81.8200457, 20.9021566 ], [ 81.8199277, 20.9010541 ], [ 81.8199706, 20.9002623 ], [ 81.8201101, 20.8996108 ], [ 81.8211079, 20.8971551 ], [ 81.8203891, 20.8969007 ] ], [ [ 81.8119562, 20.9190039 ], [ 81.8134797, 20.9182222 ], [ 81.8142414, 20.9178414 ], [ 81.8145847, 20.9174205 ], [ 81.8150192, 20.9169996 ], [ 81.8153572, 20.9169094 ], [ 81.8159044, 20.9170397 ], [ 81.8174815, 20.9183325 ], [ 81.8192518, 20.9199961 ], [ 81.8202495, 20.9217097 ], [ 81.8205607, 20.9230326 ], [ 81.8214995, 20.9254677 ], [ 81.821655, 20.9258786 ], [ 81.8215853, 20.9260089 ], [ 81.8213975, 20.926044 ], [ 81.8210489, 20.9259989 ], [ 81.8207431, 20.9259087 ], [ 81.8174279, 20.9237541 ], [ 81.8151963, 20.92185 ], [ 81.8135869, 20.9210884 ], [ 81.8127286, 20.920437 ], [ 81.8119454, 20.9195351 ], [ 81.8118677, 20.9194198 ], [ 81.8118542, 20.9192695 ], [ 81.8118677, 20.9191292 ], [ 81.8119562, 20.9190039 ] ], [ [ 81.8588144, 20.9543812 ], [ 81.8590504, 20.9542459 ], [ 81.8591604, 20.9542885 ], [ 81.8592596, 20.9543561 ], [ 81.8593937, 20.9546918 ], [ 81.8597317, 20.9555534 ], [ 81.8601876, 20.956345 ], [ 81.8610567, 20.9575623 ], [ 81.861679, 20.9583087 ], [ 81.861695, 20.958489 ], [ 81.8616199, 20.9586393 ], [ 81.8613893, 20.9587746 ], [ 81.8611801, 20.9587646 ], [ 81.8610352, 20.9587195 ], [ 81.8605095, 20.9582937 ], [ 81.8592542, 20.9572216 ], [ 81.858632, 20.9562097 ], [ 81.8584925, 20.9556486 ], [ 81.8584388, 20.9550675 ], [ 81.8585783, 20.9547219 ], [ 81.8588144, 20.9543812 ] ] ] } },
{ "type": "Feature", "properties": { "element": "relation", "id": 8943742, "name": null, "amenity": null, "water": "river", "natural": "water" },