{
"type": "FeatureCollection",
"name": "Sagar_resources",
"crs": { "type": "name", "properties": { "name": "urn:ogc:def:crs:OGC:1.3:CRS84" } },
"features": [
{ "type": "Feature", "properties": { "element": "node", "id": 7013474311, "name": "Shri Chaitanya Hospital", "amenity": "hospital", "water": null, "natural": null }, "geometry": { "type": "Point", "coordinates": [ 78.7516194, 23.8288103 ] } },
{ "type": "Feature", "properties": { "element": "node", "id": 7013582192, "name": "Shivram Shishu Chikitshalaya", "amenity": "clinic", "water": null, "natural": null }, "geometry": { "type": "Point", "coordinates": [ 78.7361799, 23.842977 ] } },
{ "type": "Feature", "properties": { "element": "node", "id": 7014244278, "name": "Khemchand Jain Hospital And Research Centre", "amenity": "hospital", "water": null, "natural": null }, "geometry": { "type": "Point", "coordinates": [ 78.7322807, 23.8307836 ] } },
{ "type": "Feature", "properties": { "element": "node", "id": 7014694822, "name": "Sewa Hospital, Sagar", "amenity": "hospital", "water": null, "natural": null }, "geometry": { "type": "Point", "coordinates": [ 78.7881879, 23.852601 ] } },
{ "type": "Feature", "properties": { "element": "node", "id": 7014694839, "name": "Sagar Heart Care Centre", "amenity": "hospital", "water": null, "natural": null }, "geometry": { "type": "Point", "coordinates": [ 78.7523925, 23.825858 ] } },
{ "type": "Feature", "properties": { "element": "node", "id": 7015816087, "name": "Janak Nursing Home, Sagar", "amenity": "clinic", "water": null, "natural": null }, "geometry": { "type": "Point", "coordinates": [ 78.7871379, 23.8519043 ] } },
{ "type": "Feature", "properties": { "element": "node", "id": 7016150747, "name": "Satnam Nursing Home", "amenity": "clinic", "water": null, "natural": null }, "geometry": { "type": "Point", "coordinates": [ 78.7882757, 23.8532105 ] } },
{ "type": "Feature", "properties": { "element": "node", "id": 7016163225, "name": "Narayan Hospital, Sagar", "amenity": "hospital", "water": null, "natural": null }, "geometry": { "type": "Point", "coordinates": [ 78.7877791, 23.8509551 ] } },
{ "type": "Feature", "properties": { "element": "node", "id": 7016173770, "name": "Sri Ganesh Memorial Hospital", "amenity": "hospital", "water": null, "natural": null }, "geometry": { "type": "Point", "coordinates": [ 78.7431306, 23.8502512 ] } },
{ "type": "Feature", "properties": { "element": "node", "id": 7016243512, "name": "Sagar Prasutika Grah", "amenity": "hospital", "water": null, "natural": null }, "geometry": { "type": "Point", "coordinates": [ 78.7414411, 23.8406722 ] } },
{ "type": "Feature", "properties": { "element": "node", "id": 7089008064, "name": "Government Hospital Malthone", "amenity": "hospital", "water": null, "natural": null }, "geometry": { "type": "Point", "coordinates": [ 78.5261388, 24.3034025 ] } },
{ "type": "Feature", "properties": { "element": "node", "id": 7101892327, "name": "Govt Hospital", "amenity": "hospital", "water": null, "natural": null }, "geometry": { "type": "Point", "coordinates": [ 78.8259528, 23.6305619 ] } },
{ "type": "Feature", "properties": { "element": "node", "id": 7101892347, "name": "Gov. Hospital Sahajpur", "amenity": "hospital", "water": null, "natural": null }, "geometry": { "type": "Point", "coordinates": [ 78.8383496, 23.3007795 ] } },
{ "type": "Feature", "properties": { "element": "node", "id": 7104617803, "name": "Government Hospital", "amenity": "hospital", "water": null, "natural": null }, "geometry": { "type": "Point", "coordinates": [ 78.6567631, 23.4048911 ] } },
{ "type": "Feature", "properties": { "element": "node", "id": 7105145588, "name": "Government Hospital", "amenity": "hospital", "water": null, "natural": null }, "geometry": { "type": "Point", "coordinates": [ 78.8710789, 23.9417914 ] } },
{ "type": "Feature", "properties": { "element": "node", "id": 7106835405, "name": "Government hospital Jaisinagar", "amenity": "hospital", "water": null, "natural": null }, "geometry": { "type": "Point", "coordinates": [ 78.5692191, 23.6283411 ] } },
{ "type": "Feature", "properties": { "element": "node", "id": 7112638770, "name": "Goverment Hospital", "amenity": "hospital", "water": null, "natural": null }, "geometry": { "type": "Point", "coordinates": [ 79.1259035, 24.3191319 ] } },
{ "type": "Feature", "properties": { "element": "node", "id": 7113102473, "name": "Government Hospital Bhainsa", "amenity": "hospital", "water": null, "natural": null }, "geometry": { "type": "Point", "coordinates": [ 78.5548304, 23.837668 ] } },
{ "type": "Feature", "properties": { "element": "node", "id": 7113296240, "name": "CH Bina", "amenity": "hospital", "water": null, "natural": null }, "geometry": { "type": "Point", "coordinates": [ 78.20801, 24.1818841 ] } },
{ "type": "Feature", "properties": { "element": "node", "id": 7113296245, "name": "Government Hospital Khurai", "amenity": "hospital", "water": null, "natural": null }, "geometry": { "type": "Point", "coordinates": [ 78.3163056, 24.031377 ] } },
{ "type": "Feature", "properties": { "element": "node", "id": 7288793815, "name": "Govt. Hospital Sahajpur", "amenity": "hospital", "water": null, "natural": null }, "geometry": { "type": "Point", "coordinates": [ 78.8357401, 23.3004654 ] } },
{ "type": "Feature", "properties": { "element": "node", "id": 7288793826, "name": "PHC Maharajpur", "amenity": "hospital", "water": null, "natural": null }, "geometry": { "type": "Point", "coordinates": [ 79.0598732, 23.2811297 ] } },
{ "type": "Feature", "properties": { "element": "node", "id": 7288793857, "name": "Hospital, Dr. Prakash Chand Sodhiya", "amenity": "hospital", "water": null, "natural": null }, "geometry": { "type": "Point", "coordinates": [ 79.0540215, 23.2832424 ] } },
{ "type": "Feature", "properties": { "element": "node", "id": 7288957826, "name": "Vivekananda Kendra Borl Hospital", "amenity": "hospital", "water": null, "natural": null }, "geometry": { "type": "Point", "coordinates": [ 78.1510333, 24.2216085 ] } },
{ "type": "Feature", "properties": { "element": "node", "id": 7518423117, "name": "Central Hospital, Sagar", "amenity": "hospital", "water": null, "natural": null }, "geometry": { "type": "Point", "coordinates": [ 78.7377495, 23.8137799 ] } },
{ "type": "Feature", "properties": { "element": "node", "id": 7518423118, "name": "Shri Govind Hospital, Sagar", "amenity": "hospital", "water": null, "natural": null }, "geometry": { "type": "Point", "coordinates": [ 78.7560077, 23.8141842 ] } },
{ "type": "Feature", "properties": { "element": "node", "id": 7518423124, "name": "Care & Cure Dental Clinic and Implant Centre, Sagar", "amenity": "clinic", "water": null, "natural": null }, "geometry": { "type": "Point", "coordinates": [ 78.7598914, 23.8330591 ] } },
{ "type": "Feature", "properties": { "element": "node", "id": 7518423130, "name": "Lokpriya Hospital", "amenity": "hospital", "water": null, "natural": null }, "geometry": { "type": "Point", "coordinates": [ 78.7624913, 23.8211681 ] } },
{ "type": "Feature", "properties": { "element": "node", "id": 7518423131, "name": "Government Hospital", "amenity": "hospital", "water": null, "natural": null }, "geometry": { "type": "Point", "coordinates": [ 78.8564147, 23.6984666 ] } },
{ "type": "Feature", "properties": { "element": "node", "id": 7518423133, "name": "Sri Paras Fracture and General Hospital", "amenity": "hospital", "water": null, "natural": null }, "geometry": { "type": "Point", "coordinates": [ 78.7561097, 23.815163 ] } },
{ "type": "Feature", "properties": { "element": "node", "id": 7518423136, "name": "Children's Hospital", "amenity": "hospital", "water": null, "natural": null }, "geometry": { "type": "Point", "coordinates": [ 78.740751, 23.8407668 ] } },
{ "type": "Feature", "properties": { "element": "node", "id": 7518423137, "name": "Dr. R.K Jain Hospital", "amenity": "hospital", "water": null, "natural": null }, "geometry": { "type": "Point", "coordinates": [ 78.7579845, 23.8332963 ] } },
{ "type": "Feature", "properties": { "element": "node", "id": 7518423138, "name": "Government District Hospital", "amenity": "hospital", "water": null, "natural": null }, "geometry": { "type": "Point", "coordinates": [ 78.7546483, 23.8227632 ] } },
{ "type": "Feature", "properties": { "element": "node", "id": 7518423139, "name": "Arihant Hospital and Nursing Home - Banda Sagar", "amenity": "hospital", "water": null, "natural": null }, "geometry": { "type": "Point", "coordinates": [ 78.9605424, 24.0382459 ] } },
{ "type": "Feature", "properties": { "element": "node", "id": 7518423142, "name": "Life Care General Hospital", "amenity": "hospital", "water": null, "natural": null }, "geometry": { "type": "Point", "coordinates": [ 78.731811, 23.842565 ] } },
{ "type": "Feature", "properties": { "element": "node", "id": 7518423143, "name": "Suyash Hospital", "amenity": "hospital", "water": null, "natural": null }, "geometry": { "type": "Point", "coordinates": [ 78.7806324, 23.8547998 ] } },
{ "type": "Feature", "properties": { "element": "node", "id": 7518423144, "name": "Singh Hospital", "amenity": "hospital", "water": null, "natural": null }, "geometry": { "type": "Point", "coordinates": [ 78.7410416, 23.8407045 ] } },
{ "type": "Feature", "properties": { "element": "node", "id": 7518423148, "name": "Chhoti Hospital", "amenity": "hospital", "water": null, "natural": null }, "geometry": { "type": "Point", "coordinates": [ 78.733041, 23.837647 ] } },
{ "type": "Feature", "properties": { "element": "node", "id": 7518423150, "name": "Singhai Rajkumar Memorial Hospital", "amenity": "hospital", "water": null, "natural": null }, "geometry": { "type": "Point", "coordinates": [ 78.207032, 24.1864632 ] } },
{ "type": "Feature", "properties": { "element": "node", "id": 7518423154, "name": "Military Hospital", "amenity": "hospital", "water": null, "natural": null }, "geometry": { "type": "Point", "coordinates": [ 78.7557202, 23.8622674 ] } },
{ "type": "Feature", "properties": { "element": "node", "id": 7518423156, "name": "Shiv Sagar Hospital", "amenity": "hospital", "water": null, "natural": null }, "geometry": { "type": "Point", "coordinates": [ 78.7557702, 23.8171736 ] } },
{ "type": "Feature", "properties": { "element": "node", "id": 7518423160, "name": "Rethore Mission Hospital", "amenity": "hospital", "water": null, "natural": null }, "geometry": { "type": "Point", "coordinates": [ 78.3164215, 24.0541346 ] } },
{ "type": "Feature", "properties": { "element": "node", "id": 7518423161, "name": "Dr.Sarfaraz Khan Hospital", "amenity": "hospital", "water": null, "natural": null }, "geometry": { "type": "Point", "coordinates": [ 78.7464445, 23.8404578 ] } },
{ "type": "Feature", "properties": { "element": "node", "id": 7518423162, "name": "Samadhan Hospital and Dental Care", "amenity": "hospital", "water": null, "natural": null }, "geometry": { "type": "Point", "coordinates": [ 78.2043574, 24.1809589 ] } },
{ "type": "Feature", "properties": { "element": "node", "id": 7518423165, "name": "Meera Hospital", "amenity": "hospital", "water": null, "natural": null }, "geometry": { "type": "Point", "coordinates": [ 78.7288111, 23.8382353 ] } },
{ "type": "Feature", "properties": { "element": "node", "id": 7518423166, "name": "SGO Hospital", "amenity": "hospital", "water": null, "natural": null }, "geometry": { "type": "Point", "coordinates": [ 78.7405471, 23.8427657 ] } },
{ "type": "Feature", "properties": { "element": "node", "id": 7518423172, "name": "Dr. Rahul Jain Clinic", "amenity": "clinic", "water": null, "natural": null }, "geometry": { "type": "Point", "coordinates": [ 78.7378483, 23.8426452 ] } },
{ "type": "Feature", "properties": { "element": "node", "id": 7518423173, "name": "Khemchand Jain Hospital and Research Centre", "amenity": "hospital", "water": null, "natural": null }, "geometry": { "type": "Point", "coordinates": [ 78.736492, 23.8280906 ] } },
{ "type": "Feature", "properties": { "element": "node", "id": 7518423174, "name": "Clinic (First Aid)", "amenity": "clinic", "water": null, "natural": null }, "geometry": { "type": "Point", "coordinates": [ 78.8411341, 23.9674512 ] } },
{ "type": "Feature", "properties": { "element": "node", "id": 7518423176, "name": "Shivaji Hospital, Sagar", "amenity": "hospital", "water": null, "natural": null }, "geometry": { "type": "Point", "coordinates": [ 78.7399838, 23.8208595 ] } },
{ "type": "Feature", "properties": { "element": "node", "id": 7518423177, "name": "University Hospital", "amenity": "hospital", "water": null, "natural": null }, "geometry": { "type": "Point", "coordinates": [ 78.7745534, 23.8240947 ] } },
{ "type": "Feature", "properties": { "element": "node", "id": 7518423180, "name": "Bhagyoday Tirth Charitable Trust", "amenity": "hospital", "water": null, "natural": null }, "geometry": { "type": "Point", "coordinates": [ 78.7213138, 23.8508958 ] } },
{ "type": "Feature", "properties": { "element": "node", "id": 7518423184, "name": "Dr. Rahat Hospital", "amenity": "hospital", "water": null, "natural": null }, "geometry": { "type": "Point", "coordinates": [ 78.395166, 23.789697 ] } },
{ "type": "Feature", "properties": { "element": "node", "id": 7518423185, "name": "Kesharwani Hospital", "amenity": "hospital", "water": null, "natural": null }, "geometry": { "type": "Point", "coordinates": [ 78.7376572, 23.8418213 ] } },
{ "type": "Feature", "properties": { "element": "node", "id": 7518423187, "name": "Richa Hospital", "amenity": "hospital", "water": null, "natural": null }, "geometry": { "type": "Point", "coordinates": [ 78.7880115, 23.8543182 ] } },
{ "type": "Feature", "properties": { "element": "node", "id": 7518423188, "name": "Shivaji Hospital", "amenity": "hospital", "water": null, "natural": null }, "geometry": { "type": "Point", "coordinates": [ 78.7523766, 23.8265568 ] } },
{ "type": "Feature", "properties": { "element": "node", "id": 7518423189, "name": "Tiwari Hospital", "amenity": "hospital", "water": null, "natural": null }, "geometry": { "type": "Point", "coordinates": [ 78.7906842, 23.8521079 ] } },
{ "type": "Feature", "properties": { "element": "node", "id": 7518423195, "name": "Krishna Hospital", "amenity": "hospital", "water": null, "natural": null }, "geometry": { "type": "Point", "coordinates": [ 78.755602, 23.814384 ] } },
{ "type": "Feature", "properties": { "element": "node", "id": 7518423198, "name": "Nidaan Hospital & Research Centre", "amenity": "hospital", "water": null, "natural": null }, "geometry": { "type": "Point", "coordinates": [ 78.7519154, 23.822345 ] } },
{ "type": "Feature", "properties": { "element": "node", "id": 7518423200, "name": "Government Hospital", "amenity": "hospital", "water": null, "natural": null }, "geometry": { "type": "Point", "coordinates": [ 79.1510868, 24.0343137 ] } },
{ "type": "Feature", "properties": { "element": "node", "id": 7518423204, "name": "Dr. Inam Khan", "amenity": "doctors", "water": null, "natural": null }, "geometry": { "type": "Point", "coordinates": [ 78.7353167, 23.8514036 ] } },
{ "type": "Feature", "properties": { "element": "node", "id": 7518423207, "name": "Paras Multispeciality Hospital", "amenity": "hospital", "water": null, "natural": null }, "geometry": { "type": "Point", "coordinates": [ 78.3288388, 24.05283 ] } },
{ "type": "Feature", "properties": { "element": "node", "id": 7518423208, "name": "Kilkari Hospital", "amenity": "hospital", "water": null, "natural": null }, "geometry": { "type": "Point", "coordinates": [ 78.7399746, 23.8409674 ] } },
{ "type": "Feature", "properties": { "element": "node", "id": 7518423210, "name": "Neo Children Hospital", "amenity": "hospital", "water": null, "natural": null }, "geometry": { "type": "Point", "coordinates": [ 78.7528679, 23.8201242 ] } },
{ "type": "Feature", "properties": { "element": "node", "id": 7518423211, "name": "Varoadhman Hospital", "amenity": "hospital", "water": null, "natural": null }, "geometry": { "type": "Point", "coordinates": [ 78.7573338, 23.8165299 ] } },
{ "type": "Feature", "properties": { "element": "node", "id": 7518423214, "name": "Dr Rajendra Chowda Clinic", "amenity": "clinic", "water": null, "natural": null }, "geometry": { "type": "Point", "coordinates": [ 78.7317014, 23.8377077 ] } },
{ "type": "Feature", "properties": { "element": "node", "id": 7518423215, "name": "City Hospital", "amenity": "hospital", "water": null, "natural": null }, "geometry": { "type": "Point", "coordinates": [ 78.2050252, 24.1828796 ] } },
{ "type": "Feature", "properties": { "element": "node", "id": 7518423217, "name": "New Government Hospital, Khurai", "amenity": "hospital", "water": null, "natural": null }, "geometry": { "type": "Point", "coordinates": [ 78.3241269, 24.0325132 ] } },
{ "type": "Feature", "properties": { "element": "node", "id": 7518423218, "name": "Gandhi Eye Hospital", "amenity": "hospital", "water": null, "natural": null }, "geometry": { "type": "Point", "coordinates": [ 78.7439014, 23.8372357 ] } },
{ "type": "Feature", "properties": { "element": "node", "id": 7518423221, "name": "Saraswati Hospital", "amenity": "hospital", "water": null, "natural": null }, "geometry": { "type": "Point", "coordinates": [ 78.7409506, 23.84451 ] } },
{ "type": "Feature", "properties": { "element": "node", "id": 7518423222, "name": "Singhai Eye Care and Homeo Hospital", "amenity": "hospital", "water": null, "natural": null }, "geometry": { "type": "Point", "coordinates": [ 78.7873268, 23.8537796 ] } },
{ "type": "Feature", "properties": { "element": "node", "id": 7518423223, "name": "Shri Siddhi Vinayak Hospital", "amenity": "hospital", "water": null, "natural": null }, "geometry": { "type": "Point", "coordinates": [ 78.7565608, 23.8140884 ] } },
{ "type": "Feature", "properties": { "element": "node", "id": 7518423227, "name": "Chhawani Hospital", "amenity": "hospital", "water": null, "natural": null }, "geometry": { "type": "Point", "coordinates": [ 78.739642, 23.853066 ] } },
{ "type": "Feature", "properties": { "element": "node", "id": 7518423228, "name": "Badkul Hospital", "amenity": "hospital", "water": null, "natural": null }, "geometry": { "type": "Point", "coordinates": [ 78.2016246, 24.1846576 ] } },
{ "type": "Feature", "properties": { "element": "node", "id": 7518423231, "name": "Dufferin Hospital", "amenity": "hospital", "water": null, "natural": null }, "geometry": { "type": "Point", "coordinates": [ 78.7549353, 23.8220443 ] } },
{ "type": "Feature", "properties": { "element": "node", "id": 8034475937, "name": "Government Hospital, Rehli", "amenity": "hospital", "water": null, "natural": null }, "geometry": { "type": "Point", "coordinates": [ 79.0631069, 23.6400727 ] } },
{ "type": "Feature", "properties": { "element": "node", "id": 8174357902, "name": "CENTRAL LIBRARY", "amenity": "university", "water": null, "natural": null }, "geometry": { "type": "Point", "coordinates": [ 78.7711252, 23.8269023 ] } },
{ "type": "Feature", "properties": { "element": "node", "id": 8174413178, "name": "Department of General & Applied Geography", "amenity": "university", "water": null, "natural": null }, "geometry": { "type": "Point", "coordinates": [ 78.7723024, 23.8280972 ] } },
{ "type": "Feature", "properties": { "element": "node", "id": 11691285478, "name": "Asha Dental Clinic Sagar", "amenity": "hospital", "water": null, "natural": null }, "geometry": { "type": "Point", "coordinates": [ 78.7863044, 23.8529941 ] } },
{ "type": "Feature", "properties": { "element": "node", "id": 11873453279, "name": "Aamy Public School", "amenity": "school", "water": null, "natural": null }, "geometry": { "type": "Point", "coordinates": [ 78.7729941, 23.8473983 ] } },
{ "type": "Feature", "properties": { "element": "node", "id": 11873453284, "name": "Hospital Vaidyaraj Ji", "amenity": "hospital", "water": null, "natural": null }, "geometry": { "type": "Point", "coordinates": [ 78.7633533, 23.8411538 ] } },
{ "type": "Feature", "properties": { "element": "node", "id": 11873949960, "name": "Sagar Hospital", "amenity": "hospital", "water": null, "natural": null }, "geometry": { "type": "Point", "coordinates": [ 78.7875405, 23.8509766 ] } },
{ "type": "Feature", "properties": { "element": "node", "id": 11876576279, "name": "Governmant District Ayurvedic Hospital", "amenity": "hospital", "water": null, "natural": null }, "geometry": { "type": "Point", "coordinates": [ 78.7632396, 23.8215011 ] } },
{ "type": "Feature", "properties": { "element": "node", "id": 11909718429, "name": "Rudransh  Clinic", "amenity": "clinic", "water": null, "natural": null }, "geometry": { "type": "Point", "coordinates": [ 78.7994852, 23.8607201 ] } },
{ "type": "Feature", "properties": { "element": "node", "id": 11911773751, "name": "Shanti Ratnam", "amenity": "hospital", "water": null, "natural": null }, "geometry": { "type": "Point", "coordinates": [ 78.7988636, 23.8575649 ] } },
{ "type": "Feature", "properties": { "element": "node", "id": 11913185757, "name": "Kendriya Vidyalaya NO.2 SAGAR", "amenity": "school", "water": null, "natural": null }, "geometry": { "type": "Point", "coordinates": [ 78.810645, 23.8613854 ] } },
{ "type": "Feature", "properties": { "element": "node", "id": 11913247426, "name": "Dr. mukesh khatei", "amenity": "hospital", "water": null, "natural": null }, "geometry": { "type": "Point", "coordinates": [ 78.7899841, 23.8523078 ] } },
{ "type": "Feature", "properties": { "element": "node", "id": 11913290762, "name": "Arpit Maternity clinic", "amenity": "clinic", "water": null, "natural": null }, "geometry": { "type": "Point", "coordinates": [ 78.7854486, 23.8503705 ] } },
{ "type": "Feature", "properties": { "element": "node", "id": 11936975145, "name": "GOVT.AUTO GIRLS PG COLLEGE OF EXCELLNECE", "amenity": "college", "water": null, "natural": null }, "geometry": { "type": "Point", "coordinates": [ 78.750371, 23.8384708 ] } },
{ "type": "Feature", "properties": { "element": "node", "id": 11937079928, "name": "Dr. Amitabh Jain Clinic", "amenity": "hospital", "water": null, "natural": null }, "geometry": { "type": "Point", "coordinates": [ 78.7452156, 23.8381753 ] } },
{ "type": "Feature", "properties": { "element": "node", "id": 11937108006, "name": "Dufrin Hospitai", "amenity": "hospital", "water": null, "natural": null }, "geometry": { "type": "Point", "coordinates": [ 78.7460143, 23.8382136 ] } },
{ "type": "Feature", "properties": { "element": "node", "id": 11939035290, "name": "Nursing Home Makroniya", "amenity": "hospital", "water": null, "natural": null }, "geometry": { "type": "Point", "coordinates": [ 78.7399564, 23.8376081 ] } },
{ "type": "Feature", "properties": { "element": "node", "id": 11939101137, "name": "Littli Star SH School", "amenity": "school", "water": null, "natural": null }, "geometry": { "type": "Point", "coordinates": [ 78.8022621, 23.8624204 ] } },
{ "type": "Feature", "properties": { "element": "node", "id": 11939117281, "name": "St .Mary's School", "amenity": "school", "water": null, "natural": null }, "geometry": { "type": "Point", "coordinates": [ 78.8054669, 23.8606803 ] } },
{ "type": "Feature", "properties": { "element": "node", "id": 11941302532, "name": "GURUKRIPA HOME HEALTH", "amenity": "hospital", "water": null, "natural": null }, "geometry": { "type": "Point", "coordinates": [ 78.7380816, 23.8409036 ] } },
{ "type": "Feature", "properties": { "element": "node", "id": 11941490928, "name": "Shivram Shishu Chikitsalaya", "amenity": "hospital", "water": null, "natural": null }, "geometry": { "type": "Point", "coordinates": [ 78.7361866, 23.8431722 ] } },
{ "type": "Feature", "properties": { "element": "node", "id": 11941490930, "name": "Dr.Mahendra Jain Hospital", "amenity": "hospital", "water": null, "natural": null }, "geometry": { "type": "Point", "coordinates": [ 78.7326157, 23.8436664 ] } },
{ "type": "Feature", "properties": { "element": "node", "id": 11941519348, "name": "Chiranjivi hospital", "amenity": "hospital", "water": null, "natural": null }, "geometry": { "type": "Point", "coordinates": [ 78.7314709, 23.8428166 ] } },
{ "type": "Feature", "properties": { "element": "node", "id": 11941545869, "name": "Umakundan Medical", "amenity": "hospital", "water": null, "natural": null }, "geometry": { "type": "Point", "coordinates": [ 78.7318173, 23.8431089 ] } },
{ "type": "Feature", "properties": { "element": "node", "id": 11942031495, "name": "Indra Gadhi eye hospital", "amenity": "hospital", "water": null, "natural": null }, "geometry": { "type": "Point", "coordinates": [ 78.7300791, 23.8458358 ] } },
{ "type": "Feature", "properties": { "element": "node", "id": 11946871821, "name": "Health Centre Clinic", "amenity": "hospital", "water": null, "natural": null }, "geometry": { "type": "Point", "coordinates": [ 78.7938294, 23.8469594 ] } },
{ "type": "Feature", "properties": { "element": "node", "id": 11947104069, "name": "UrdanCommunity Health Center", "amenity": "hospital", "water": null, "natural": null }, "geometry": { "type": "Point", "coordinates": [ 78.7993129, 23.8404594 ] } },
{ "type": "Feature", "properties": { "element": "node", "id": 11947561307, "name": "Chiranjivi Nursing Home", "amenity": "hospital", "water": null, "natural": null }, "geometry": { "type": "Point", "coordinates": [ 78.7241928, 23.8381319 ] } },
{ "type": "Feature", "properties": { "element": "node", "id": 11947648220, "name": "Maharshi Vidya Mandir School", "amenity": "school", "water": null, "natural": null }, "geometry": { "type": "Point", "coordinates": [ 78.6892321, 23.8251347 ] } },
{ "type": "Feature", "properties": { "element": "node", "id": 11949901875, "name": "Railway hospital sagar Wcr", "amenity": "hospital", "water": null, "natural": null }, "geometry": { "type": "Point", "coordinates": [ 78.7475233, 23.8492963 ] } },
{ "type": "Feature", "properties": { "element": "node", "id": 11949912741, "name": "Surya Multispecialiy Hospital Sagar", "amenity": "hospital", "water": null, "natural": null }, "geometry": { "type": "Point", "coordinates": [ 78.7443247, 23.8444822 ] } },
{ "type": "Feature", "properties": { "element": "node", "id": 11962804662, "name": "ELC S chool", "amenity": "school", "water": null, "natural": null }, "geometry": { "type": "Point", "coordinates": [ 78.7622652, 23.8331913 ] } },
{ "type": "Feature", "properties": { "element": "node", "id": 11962813420, "name": "Swedish Mission School", "amenity": "school", "water": null, "natural": null }, "geometry": { "type": "Point", "coordinates": [ 78.7617443, 23.8339518 ] } },
{ "type": "Feature", "properties": { "element": "node", "id": 11964274256, "name": "Sagar MedicalSiore", "amenity": "hospital", "water": null, "natural": null }, "geometry": { "type": "Point", "coordinates": [ 78.7384734, 23.8148151 ] } },
{ "type": "Feature", "properties": { "element": "node", "id": 11968428130, "name": "Maheshwari Nursing Home", "amenity": "hospital", "water": null, "natural": null }, "geometry": { "type": "Point", "coordinates": [ 78.7382692, 23.8360027 ] } },
{ "type": "Feature", "properties": { "element": "node", "id": 11968935210, "name": "Divisional aaimal Hosptal Sagar", "amenity": "hospital", "water": null, "natural": null }, "geometry": { "type": "Point", "coordinates": [ 78.7267927, 23.8390661 ] } },
{ "type": "Feature", "properties": { "element": "node", "id": 11971415148, "name": "Government Animal Hospital", "amenity": "hospital", "water": null, "natural": null }, "geometry": { "type": "Point", "coordinates": [ 78.7513083, 23.8103176 ] } },
{ "type": "Feature", "properties": { "element": "node", "id": 11971470216, "name": "Physiqure CTN Hospital", "amenity": "hospital", "water": null, "natural": null }, "geometry": { "type": "Point", "coordinates": [ 78.7514749, 23.8089329 ] } },
{ "type": "Feature", "properties": { "element": "node", "id": 11978171987, "name": "Sahri Samudayak sbasthy Kandr", "amenity": "hospital", "water": null, "natural": null }, "geometry": { "type": "Point", "coordinates": [ 78.7987765, 23.8407871 ] } },
{ "type": "Feature", "properties": { "element": "node", "id": 11980635710, "name": "MK MEDICAL", "amenity": "hospital", "water": null, "natural": null }, "geometry": { "type": "Point", "coordinates": [ 78.9612988, 24.0391522 ] } },
{ "type": "Feature", "properties": { "element": "node", "id": 11980727024, "name": "Govt hospital banda Sagar M P", "amenity": "hospital", "water": null, "natural": null }, "geometry": { "type": "Point", "coordinates": [ 78.9646005, 24.045607 ] } },
{ "type": "Feature", "properties": { "element": "node", "id": 11980743476, "name": "Acharya Shri Vidhyasagar Public School", "amenity": "university", "water": null, "natural": null }, "geometry": { "type": "Point", "coordinates": [ 78.9689734, 24.0540225 ] } },
{ "type": "Feature", "properties": { "element": "node", "id": 11980754195, "name": "GOVT. RAJIV GANDHI COLLEGE", "amenity": "university", "water": null, "natural": null }, "geometry": { "type": "Point", "coordinates": [ 78.944825, 24.0437931 ] } },
{ "type": "Feature", "properties": { "element": "node", "id": 11980775687, "name": "SREE RAJIV GADEE  GOVT. COLEJ, BANDA", "amenity": "university", "water": null, "natural": null }, "geometry": { "type": "Point", "coordinates": [ 78.948802, 24.0431857 ] } },
{ "type": "Feature", "properties": { "element": "node", "id": 11982470315, "name": "Sant Kripa Madical Store & Hospital", "amenity": "hospital", "water": null, "natural": null }, "geometry": { "type": "Point", "coordinates": [ 78.9348678, 23.8533313 ] } },
{ "type": "Feature", "properties": { "element": "node", "id": 11982487540, "name": "Dr Amit Patel Hospital", "amenity": "hospital", "water": null, "natural": null }, "geometry": { "type": "Point", "coordinates": [ 78.9353559, 23.8533726 ] } },
{ "type": "Feature", "properties": { "element": "node", "id": 11982711930, "name": "Adarsh Medical Stores", "amenity": "hospital", "water": null, "natural": null }, "geometry": { "type": "Point", "coordinates": [ 79.1484327, 23.7809842 ] } },
{ "type": "Feature", "properties": { "element": "node", "id": 11989557223, "name": "Babulal Tarabai Institute Of Research", "amenity": "university", "water": null, "natural": null }, "geometry": { "type": "Point", "coordinates": [ 78.8039834, 23.8074609 ] } },
{ "type": "Feature", "properties": { "element": "node", "id": 11989591777, "name": "Swami Vivekanand University", "amenity": "university", "water": null, "natural": null }, "geometry": { "type": "Point", "coordinates": [ 78.7995351, 23.8191068 ] } },
{ "type": "Feature", "properties": { "element": "node", "id": 11989604388, "name": "Lotus Public Senior Secondary School", "amenity": "university", "water": null, "natural": null }, "geometry": { "type": "Point", "coordinates": [ 78.8044101, 23.8067816 ] } },
{ "type": "Feature", "properties": { "element": "node", "id": 11989632885, "name": "Darshil health care & medical", "amenity": "hospital", "water": null, "natural": null }, "geometry": { "type": "Point", "coordinates": [ 78.8133689, 23.7817051 ] } },
{ "type": "Feature", "properties": { "element": "node", "id": 11989641510, "name": "Government Middle School", "amenity": "university", "water": null, "natural": null }, "geometry": { "type": "Point", "coordinates": [ 78.8141865, 23.7810455 ] } },
{ "type": "Feature", "properties": { "element": "node", "id": 11989904810, "name": "Government Girls High Secondary School", "amenity": "university", "water": null, "natural": null }, "geometry": { "type": "Point", "coordinates": [ 78.8612599, 23.7456776 ] } },
{ "type": "Feature", "properties": { "element": "node", "id": 11989951852, "name": "Aspatal Dr. P AN Dubay", "amenity": "hospital", "water": null, "natural": null }, "geometry": { "type": "Point", "coordinates": [ 78.8595046, 23.7469947 ] } },
{ "type": "Feature", "properties": { "element": "node", "id": 11990023279, "name": "Aangnbadee Kaindr", "amenity": "university", "water": null, "natural": null }, "geometry": { "type": "Point", "coordinates": [ 78.8895625, 23.728828 ] } },
{ "type": "Feature", "properties": { "element": "node", "id": 11990057637, "name": "Government Primary School", "amenity": "university", "water": null, "natural": null }, "geometry": { "type": "Point", "coordinates": [ 78.9081024, 23.7153887 ] } },
{ "type": "Feature", "properties": { "element": "node", "id": 12047222456, "name": "Govt. Excellence Hss School Rehli", "amenity": "university", "water": null, "natural": null }, "geometry": { "type": "Point", "coordinates": [ 79.0680573, 23.6406541 ] } },
{ "type": "Feature", "properties": { "element": "node", "id": 12047227385, "name": "Govt. College Rehli", "amenity": "university", "water": null, "natural": null }, "geometry": { "type": "Point", "coordinates": [ 79.0701641, 23.640153 ] } },
{ "type": "Feature", "properties": { "element": "node", "id": 12069724735, "name": "Doon Worid public School", "amenity": "college", "water": null, "natural": null }, "geometry": { "type": "Point", "coordinates": [ 78.8115113, 23.7614929 ] } },
{ "type": "Feature", "properties": { "element": "node", "id": 12072982444, "name": "Government Primary  School ReiPura", "amenity": "college", "water": null, "natural": null }, "geometry": { "type": "Point", "coordinates": [ 78.8113432, 23.7121196 ] } },
{ "type": "Feature", "properties": { "element": "node", "id": 12073040094, "name": "Nanhi Deori", "amenity": "college", "water": null, "natural": null }, "geometry": { "type": "Point", "coordinates": [ 78.8143482, 23.6670791 ] } },
{ "type": "Feature", "properties": { "element": "node", "id": 12076805031, "name": "Sarsvati Sisu Mandir Hai School", "amenity": "college", "water": null, "natural": null }, "geometry": { "type": "Point", "coordinates": [ 78.9399262, 23.5298346 ] } },
{ "type": "Feature", "properties": { "element": "node", "id": 12076843211, "name": "Government Girls Higher S.. School", "amenity": "college", "water": null, "natural": null }, "geometry": { "type": "Point", "coordinates": [ 78.9365427, 23.524961 ] } },
{ "type": "Feature", "properties": { "element": "node", "id": 12087092483, "name": "Novell Public School Route", "amenity": "university", "water": null, "natural": null }, "geometry": { "type": "Point", "coordinates": [ 79.0228207, 23.406329 ] } },
{ "type": "Feature", "properties": { "element": "node", "id": 12088927579, "name": "Modern International School Deori", "amenity": "college", "water": null, "natural": null }, "geometry": { "type": "Point", "coordinates": [ 79.0263556, 23.4019256 ] } },
{ "type": "Feature", "properties": { "element": "node", "id": 12088941581, "name": "Government Hospital", "amenity": "hospital", "water": null, "natural": null }, "geometry": { "type": "Point", "coordinates": [ 79.0210424, 23.4008007 ] } },
{ "type": "Feature", "properties": { "element": "node", "id": 12088974826, "name": "GOVT. Industrial Training ...", "amenity": "college", "water": null, "natural": null }, "geometry": { "type": "Point", "coordinates": [ 79.0323863, 23.3865945 ] } },
{ "type": "Feature", "properties": { "element": "node", "id": 12089940466, "name": "Career Convent English medium School Deori", "amenity": "university", "water": null, "natural": null }, "geometry": { "type": "Point", "coordinates": [ 79.0204513, 23.398388 ] } },
{ "type": "Feature", "properties": { "element": "node", "id": 12096763159, "name": "BKP College Deori", "amenity": "college", "water": null, "natural": null }, "geometry": { "type": "Point", "coordinates": [ 79.0160225, 23.3865571 ] } },
{ "type": "Feature", "properties": { "element": "node", "id": 12096891498, "name": "Matas Academy", "amenity": "university", "water": null, "natural": null }, "geometry": { "type": "Point", "coordinates": [ 78.7519158, 23.8049975 ] } },
{ "type": "Feature", "properties": { "element": "node", "id": 12096920961, "name": "Paras Vidya Vihar  School", "amenity": "university", "water": null, "natural": null }, "geometry": { "type": "Point", "coordinates": [ 78.7519996, 23.8083025 ] } },
{ "type": "Feature", "properties": { "element": "node", "id": 12096929211, "name": "Gyanveer Institute ManagementOf", "amenity": "university", "water": null, "natural": null }, "geometry": { "type": "Point", "coordinates": [ 78.7529254, 23.806831 ] } },
{ "type": "Feature", "properties": { "element": "node", "id": 12096936311, "name": "Cambridge Playground With Open Gym", "amenity": "university", "water": null, "natural": null }, "geometry": { "type": "Point", "coordinates": [ 78.7539414, 23.8065739 ] } },
{ "type": "Feature", "properties": { "element": "node", "id": 12097066327, "name": "S.  H.    School Menpani", "amenity": "college", "water": null, "natural": null }, "geometry": { "type": "Point", "coordinates": [ 78.7651484, 23.775718 ] } },
{ "type": "Feature", "properties": { "element": "node", "id": 12097069663, "name": "Govt. School Menpani", "amenity": "college", "water": null, "natural": null }, "geometry": { "type": "Point", "coordinates": [ 78.7688413, 23.7800704 ] } },
{ "type": "Feature", "properties": { "element": "node", "id": 12098702034, "name": "Green World PubicSchool", "amenity": "university", "water": null, "natural": null }, "geometry": { "type": "Point", "coordinates": [ 78.7567176, 23.7565423 ] } },
{ "type": "Feature", "properties": { "element": "node", "id": 12100034925, "name": "Madhymik Sala Sothiya", "amenity": "college", "water": null, "natural": null }, "geometry": { "type": "Point", "coordinates": [ 78.7251086, 23.7372006 ] } },
{ "type": "Feature", "properties": { "element": "node", "id": 12100130521, "name": "Madhyamik Sala  Baroda", "amenity": "college", "water": null, "natural": null }, "geometry": { "type": "Point", "coordinates": [ 78.7017855, 23.7216711 ] } },
{ "type": "Feature", "properties": { "element": "node", "id": 12100458546, "name": "Saskeya Ucchtar Maddhyamik Vidhyala", "amenity": "college", "water": null, "natural": null }, "geometry": { "type": "Point", "coordinates": [ 78.7025497, 23.7171812 ] } },
{ "type": "Feature", "properties": { "element": "node", "id": 12100511232, "name": "Saraswati shishu mandir", "amenity": "college", "water": null, "natural": null }, "geometry": { "type": "Point", "coordinates": [ 78.6849507, 23.6975405 ] } },
{ "type": "Feature", "properties": { "element": "node", "id": 12100537209, "name": "Sanjbeni Hospital", "amenity": "hospital", "water": null, "natural": null }, "geometry": { "type": "Point", "coordinates": [ 78.6849785, 23.6978283 ] } },
{ "type": "Feature", "properties": { "element": "node", "id": 12100545549, "name": "Raj masala udyog", "amenity": "university", "water": null, "natural": null }, "geometry": { "type": "Point", "coordinates": [ 78.6557479, 23.6684588 ] } },
{ "type": "Feature", "properties": { "element": "node", "id": 12100624094, "name": "G. P.  S.       karaiya", "amenity": "university", "water": null, "natural": null }, "geometry": { "type": "Point", "coordinates": [ 78.6416818, 23.656865 ] } },
{ "type": "Feature", "properties": { "element": "node", "id": 12100717710, "name": "Cmrise School  Jaisinagar", "amenity": "university", "water": null, "natural": null }, "geometry": { "type": "Point", "coordinates": [ 78.5792043, 23.6263905 ] } },
{ "type": "Feature", "properties": { "element": "node", "id": 12100736240, "name": "Gyanveer College", "amenity": "university", "water": null, "natural": null }, "geometry": { "type": "Point", "coordinates": [ 78.5784119, 23.6225261 ] } },
{ "type": "Feature", "properties": { "element": "node", "id": 12101730070, "name": "Gynodaya Mahavidyalaya", "amenity": "university", "water": null, "natural": null }, "geometry": { "type": "Point", "coordinates": [ 78.5727644, 23.618235 ] } },
{ "type": "Feature", "properties": { "element": "node", "id": 12101745431, "name": "Utkarsh Public School", "amenity": "college", "water": null, "natural": null }, "geometry": { "type": "Point", "coordinates": [ 78.5683764, 23.6260104 ] } },
{ "type": "Feature", "properties": { "element": "node", "id": 12101788136, "name": "Community Health Center Jaisinagar", "amenity": "clinic", "water": null, "natural": null }, "geometry": { "type": "Point", "coordinates": [ 78.5691256, 23.6279526 ] } },
{ "type": "Feature", "properties": { "element": "node", "id": 12102030123, "name": "GsconventSchool Jaisingar", "amenity": "college", "water": null, "natural": null }, "geometry": { "type": "Point", "coordinates": [ 78.5724117, 23.6278381 ] } },
{ "type": "Feature", "properties": { "element": "node", "id": 12102300598, "name": "Saraswati Shisau Mandir", "amenity": "college", "water": null, "natural": null }, "geometry": { "type": "Point", "coordinates": [ 78.5744539, 23.6251258 ] } },
{ "type": "Feature", "properties": { "element": "node", "id": 12107594782, "name": "Govt. High  School Padrai", "amenity": "college", "water": null, "natural": null }, "geometry": { "type": "Point", "coordinates": [ 78.6036908, 23.7038443 ] } },
{ "type": "Feature", "properties": { "element": "node", "id": 12107607864, "name": "S A M.Sala Onria", "amenity": "college", "water": null, "natural": null }, "geometry": { "type": "Point", "coordinates": [ 78.5976349, 23.6779498 ] } },
{ "type": "Feature", "properties": { "element": "node", "id": 12107619258, "name": "Govt.School  Atirikt Kaksh", "amenity": "college", "water": null, "natural": null }, "geometry": { "type": "Point", "coordinates": [ 78.5629544, 23.6785127 ] } },
{ "type": "Feature", "properties": { "element": "node", "id": 12107631810, "name": "PS School Sagauni Puraina", "amenity": "college", "water": null, "natural": null }, "geometry": { "type": "Point", "coordinates": [ 78.5603123, 23.6851128 ] } },
{ "type": "Feature", "properties": { "element": "node", "id": 12107901776, "name": "SAS. HAI School", "amenity": "college", "water": null, "natural": null }, "geometry": { "type": "Point", "coordinates": [ 78.5417319, 23.7043654 ] } },
{ "type": "Feature", "properties": { "element": "node", "id": 12107939358, "name": "Govt. Primary School", "amenity": "college", "water": null, "natural": null }, "geometry": { "type": "Point", "coordinates": [ 78.5422017, 23.7050812 ] } },
{ "type": "Feature", "properties": { "element": "node", "id": 12108136873, "name": "Saskiya Parthmik Sala", "amenity": "college", "water": null, "natural": null }, "geometry": { "type": "Point", "coordinates": [ 78.6183594, 23.7556129 ] } },
{ "type": "Feature", "properties": { "element": "node", "id": 12108166117, "name": "Padrai High School", "amenity": "college", "water": null, "natural": null }, "geometry": { "type": "Point", "coordinates": [ 78.5963422, 23.6955305 ] } },
{ "type": "Feature", "properties": { "element": "node", "id": 12108173957, "name": "Govenment Primary School", "amenity": "college", "water": null, "natural": null }, "geometry": { "type": "Point", "coordinates": [ 78.6152867, 23.7699259 ] } },
{ "type": "Feature", "properties": { "element": "node", "id": 12108176984, "name": "School Semadhana", "amenity": "college", "water": null, "natural": null }, "geometry": { "type": "Point", "coordinates": [ 78.6173015, 23.7711186 ] } },
{ "type": "Feature", "properties": { "element": "node", "id": 12108226291, "name": "Govt School Badua", "amenity": "college", "water": null, "natural": null }, "geometry": { "type": "Point", "coordinates": [ 78.6356629, 23.7874595 ] } },
{ "type": "Feature", "properties": { "element": "node", "id": 12108242827, "name": "Sa.U. Viddhyaly, Bhapel", "amenity": "college", "water": null, "natural": null }, "geometry": { "type": "Point", "coordinates": [ 78.6364795, 23.8063946 ] } },
{ "type": "Feature", "properties": { "element": "node", "id": 12114066857, "name": "Shaskiya  Madhyamik Shala", "amenity": "college", "water": null, "natural": null }, "geometry": { "type": "Point", "coordinates": [ 78.6424143, 23.8077269 ] } },
{ "type": "Feature", "properties": { "element": "node", "id": 12150958456, "name": "Goverment Middle School", "amenity": "college", "water": null, "natural": null }, "geometry": { "type": "Point", "coordinates": [ 78.6718881, 23.8190373 ] } },
{ "type": "Feature", "properties": { "element": "node", "id": 12151320095, "name": "Jawahar Lal Nehru Agriculture", "amenity": "college", "water": null, "natural": null }, "geometry": { "type": "Point", "coordinates": [ 78.6920779, 23.8281295 ] } },
{ "type": "Feature", "properties": { "element": "node", "id": 12151349992, "name": "Adina Institute Of Pharmaceutical Science", "amenity": "college", "water": null, "natural": null }, "geometry": { "type": "Point", "coordinates": [ 78.694195, 23.8288098 ] } },
{ "type": "Feature", "properties": { "element": "node", "id": 12151393067, "name": "C R Model High School", "amenity": "college", "water": null, "natural": null }, "geometry": { "type": "Point", "coordinates": [ 78.7330591, 23.8387678 ] } },
{ "type": "Feature", "properties": { "element": "node", "id": 12151488058, "name": "Saskaiy Partmik Sala  Motinagar", "amenity": "college", "water": null, "natural": null }, "geometry": { "type": "Point", "coordinates": [ 78.7335842, 23.8393028 ] } },
{ "type": "Feature", "properties": { "element": "node", "id": 12151497426, "name": "Babu Rao Memorial School", "amenity": "college", "water": null, "natural": null }, "geometry": { "type": "Point", "coordinates": [ 78.732494, 23.8386165 ] } },
{ "type": "Feature", "properties": { "element": "node", "id": 12153595335, "name": "Ashwin Hospital", "amenity": "hospital", "water": null, "natural": null }, "geometry": { "type": "Point", "coordinates": [ 78.7352199, 23.8163419 ] } },
{ "type": "Feature", "properties": { "element": "node", "id": 12153613339, "name": "Gyan Sagar Play School - ALeading Pre", "amenity": "school", "water": null, "natural": null }, "geometry": { "type": "Point", "coordinates": [ 78.7383605, 23.8167478 ] } },
{ "type": "Feature", "properties": { "element": "node", "id": 12153683663, "name": "RPS Medical Store Dr.Devashish", "amenity": "hospital", "water": null, "natural": null }, "geometry": { "type": "Point", "coordinates": [ 78.7443367, 23.8251324 ] } },
{ "type": "Feature", "properties": { "element": "node", "id": 12157520157, "name": "Gyan Sthali  Convent School", "amenity": "college", "water": null, "natural": null }, "geometry": { "type": "Point", "coordinates": [ 78.6379638, 23.8557076 ] } },
{ "type": "Feature", "properties": { "element": "node", "id": 12157587900, "name": "CM Rise  School", "amenity": "college", "water": null, "natural": null }, "geometry": { "type": "Point", "coordinates": [ 78.5943263, 23.9048097 ] } },
{ "type": "Feature", "properties": { "element": "node", "id": 12157594122, "name": "Gyanveer University", "amenity": "college", "water": null, "natural": null }, "geometry": { "type": "Point", "coordinates": [ 78.6069745, 23.8738227 ] } },
{ "type": "Feature", "properties": { "element": "node", "id": 12159368120, "name": "Govt. Middle SchoolNear Sumreri", "amenity": "college", "water": null, "natural": null }, "geometry": { "type": "Point", "coordinates": [ 78.4032617, 24.0065559 ] } },
{ "type": "Feature", "properties": { "element": "node", "id": 12159786878, "name": "Digiqure E Clinik Khurai", "amenity": "hospital", "water": null, "natural": null }, "geometry": { "type": "Point", "coordinates": [ 78.3333569, 24.0398009 ] } },
{ "type": "Feature", "properties": { "element": "node", "id": 12159862898, "name": "Lalita Shasti Higher Se. School", "amenity": "college", "water": null, "natural": null }, "geometry": { "type": "Point", "coordinates": [ 78.3280412, 24.0421878 ] } },
{ "type": "Feature", "properties": { "element": "node", "id": 12159874393, "name": "Saraf Ji Clinic", "amenity": "hospital", "water": null, "natural": null }, "geometry": { "type": "Point", "coordinates": [ 78.3305836, 24.041404 ] } },
{ "type": "Feature", "properties": { "element": "node", "id": 12159951205, "name": "Takshshila Convent School", "amenity": "college", "water": null, "natural": null }, "geometry": { "type": "Point", "coordinates": [ 78.3264539, 24.0422139 ] } },
{ "type": "Feature", "properties": { "element": "node", "id": 12161359717, "name": "Blue Bells Hr. Se. School", "amenity": "college", "water": null, "natural": null }, "geometry": { "type": "Point", "coordinates": [ 78.3215814, 24.0538409 ] } },
{ "type": "Feature", "properties": { "element": "node", "id": 12161365632, "name": "Thomas School", "amenity": "college", "water": null, "natural": null }, "geometry": { "type": "Point", "coordinates": [ 78.3231373, 24.0534539 ] } },
{ "type": "Feature", "properties": { "element": "node", "id": 12161404918, "name": "Gyanodaya Hi. Se. School", "amenity": "college", "water": null, "natural": null }, "geometry": { "type": "Point", "coordinates": [ 78.3265427, 24.0568322 ] } },
{ "type": "Feature", "properties": { "element": "node", "id": 12161576580, "name": "Jain Dental Clinic", "amenity": "hospital", "water": null, "natural": null }, "geometry": { "type": "Point", "coordinates": [ 78.3300651, 24.0448949 ] } },
{ "type": "Feature", "properties": { "element": "node", "id": 12161627620, "name": "Sanskar Biddya Mandior", "amenity": "college", "water": null, "natural": null }, "geometry": { "type": "Point", "coordinates": [ 78.3339593, 24.0412981 ] } },
{ "type": "Feature", "properties": { "element": "node", "id": 12161641625, "name": "Gov. Degree College. Khurai", "amenity": "college", "water": null, "natural": null }, "geometry": { "type": "Point", "coordinates": [ 78.3051112, 24.0629862 ] } },
{ "type": "Feature", "properties": { "element": "node", "id": 12161647988, "name": "Sumitra Devi Gyanodaya Pablik ......", "amenity": "college", "water": null, "natural": null }, "geometry": { "type": "Point", "coordinates": [ 78.2536106, 24.1426757 ] } },
{ "type": "Feature", "properties": { "element": "node", "id": 12161700012, "name": "DAV Model  Public School", "amenity": "college", "water": null, "natural": null }, "geometry": { "type": "Point", "coordinates": [ 78.2225477, 24.1614237 ] } },
{ "type": "Feature", "properties": { "element": "node", "id": 12161717116, "name": "Sub Health Centre", "amenity": "hospital", "water": null, "natural": null }, "geometry": { "type": "Point", "coordinates": [ 78.216782, 24.1688278 ] } },
{ "type": "Feature", "properties": { "element": "node", "id": 12161733644, "name": "Ponam M.E.M. School", "amenity": "school", "water": null, "natural": null }, "geometry": { "type": "Point", "coordinates": [ 78.2098692, 24.1789343 ] } },
{ "type": "Feature", "properties": { "element": "node", "id": 12165374404, "name": "Kirti Dental & CosmeticClinic", "amenity": "hospital", "water": null, "natural": null }, "geometry": { "type": "Point", "coordinates": [ 78.2036609, 24.1833024 ] } },
{ "type": "Feature", "properties": { "element": "node", "id": 12165650440, "name": "Green Valley Convent School", "amenity": "college", "water": null, "natural": null }, "geometry": { "type": "Point", "coordinates": [ 78.1958912, 24.1745848 ] } },
{ "type": "Feature", "properties": { "element": "node", "id": 12167421983, "name": "Diabetes Care Clinc Dr Bharat", "amenity": "hospital", "water": null, "natural": null }, "geometry": { "type": "Point", "coordinates": [ 78.1959153, 24.1763176 ] } },
{ "type": "Feature", "properties": { "element": "node", "id": 12167432665, "name": "Shanta Clinic Bina", "amenity": "hospital", "water": null, "natural": null }, "geometry": { "type": "Point", "coordinates": [ 78.1945165, 24.1765134 ] } },
{ "type": "Feature", "properties": { "element": "node", "id": 12167452054, "name": "Partap Madhyamik Sala", "amenity": "college", "water": null, "natural": null }, "geometry": { "type": "Point", "coordinates": [ 78.1973884, 24.1770204 ] } },
{ "type": "Feature", "properties": { "element": "node", "id": 12167474241, "name": "Govt.Law  College Bina", "amenity": "college", "water": null, "natural": null }, "geometry": { "type": "Point", "coordinates": [ 78.1939521, 24.1679459 ] } },
{ "type": "Feature", "properties": { "element": "node", "id": 12167819077, "name": "Bina Public H. S. School", "amenity": "college", "water": null, "natural": null }, "geometry": { "type": "Point", "coordinates": [ 78.1896563, 24.1651881 ] } },
{ "type": "Feature", "properties": { "element": "node", "id": 12167824460, "name": "GOVT. P.G. College", "amenity": "college", "water": null, "natural": null }, "geometry": { "type": "Point", "coordinates": [ 78.1944371, 24.1669466 ] } },
{ "type": "Feature", "properties": { "element": "node", "id": 12168053732, "name": "D C Jain Hospital", "amenity": "hospital", "water": null, "natural": null }, "geometry": { "type": "Point", "coordinates": [ 78.1902632, 24.1804968 ] } },
{ "type": "Feature", "properties": { "element": "node", "id": 12168144463, "name": "Govt Girls H.S. School", "amenity": "college", "water": null, "natural": null }, "geometry": { "type": "Point", "coordinates": [ 78.2144888, 24.1886613 ] } },
{ "type": "Feature", "properties": { "element": "node", "id": 12168144464, "name": "Govt Girls H.S.U.M.K.Sala", "amenity": "college", "water": null, "natural": null }, "geometry": { "type": "Point", "coordinates": [ 78.2141696, 24.1883567 ] } },
{ "type": "Feature", "properties": { "element": "node", "id": 12171367556, "name": "Indo American Montessori Pre School", "amenity": "college", "water": null, "natural": null }, "geometry": { "type": "Point", "coordinates": [ 78.2104607, 24.1892021 ] } },
{ "type": "Feature", "properties": { "element": "node", "id": 12171398884, "name": "Girls College", "amenity": "college", "water": null, "natural": null }, "geometry": { "type": "Point", "coordinates": [ 78.2136767, 24.1904766 ] } },
{ "type": "Feature", "properties": { "element": "node", "id": 12171850436, "name": "Saraswati Shiahu Mandir Bina", "amenity": "college", "water": null, "natural": null }, "geometry": { "type": "Point", "coordinates": [ 78.2208534, 24.1942599 ] } },
{ "type": "Feature", "properties": { "element": "node", "id": 12171858057, "name": "Gurudev Nursing College", "amenity": "college", "water": null, "natural": null }, "geometry": { "type": "Point", "coordinates": [ 78.2396125, 24.1953206 ] } },
{ "type": "Feature", "properties": { "element": "node", "id": 12171885219, "name": "Ambition Public School Bina", "amenity": "college", "water": null, "natural": null }, "geometry": { "type": "Point", "coordinates": [ 78.2308258, 24.1939379 ] } },
{ "type": "Feature", "properties": { "element": "node", "id": 12172069892, "name": "GOVT.Iti Bina", "amenity": "college", "water": null, "natural": null }, "geometry": { "type": "Point", "coordinates": [ 78.2515345, 24.2029322 ] } },
{ "type": "Feature", "properties": { "element": "node", "id": 12172095422, "name": "GOVT. Primary School", "amenity": "college", "water": null, "natural": null }, "geometry": { "type": "Point", "coordinates": [ 78.2844473, 24.2146336 ] } },
{ "type": "Feature", "properties": { "element": "node", "id": 12172106071, "name": "Basahari School", "amenity": "college", "water": null, "natural": null }, "geometry": { "type": "Point", "coordinates": [ 78.2980044, 24.2117801 ] } },
{ "type": "Feature", "properties": { "element": "node", "id": 12172116549, "name": "Basahari GOVT. H. School", "amenity": "college", "water": null, "natural": null }, "geometry": { "type": "Point", "coordinates": [ 78.2944396, 24.2106832 ] } },
{ "type": "Feature", "properties": { "element": "node", "id": 12172382966, "name": "GOVT.H. S. School", "amenity": "college", "water": null, "natural": null }, "geometry": { "type": "Point", "coordinates": [ 78.3619097, 24.2023569 ] } },
{ "type": "Feature", "properties": { "element": "node", "id": 12172502645, "name": "Primary Heaith Ctr Khimlasa", "amenity": "hospital", "water": null, "natural": null }, "geometry": { "type": "Point", "coordinates": [ 78.3617475, 24.2028649 ] } },
{ "type": "Feature", "properties": { "element": "node", "id": 12172592399, "name": "Public Convent School", "amenity": "college", "water": null, "natural": null }, "geometry": { "type": "Point", "coordinates": [ 78.3612083, 24.2055746 ] } },
{ "type": "Feature", "properties": { "element": "node", "id": 12174328589, "name": "MP Convent School Khimlasa", "amenity": "university", "water": null, "natural": null }, "geometry": { "type": "Point", "coordinates": [ 78.3670455, 24.1943516 ] } },
{ "type": "Feature", "properties": { "element": "node", "id": 12174556274, "name": "GOVT.M . School Karmpur", "amenity": "university", "water": null, "natural": null }, "geometry": { "type": "Point", "coordinates": [ 78.3695785, 24.1840946 ] } },
{ "type": "Feature", "properties": { "element": "node", "id": 12174645935, "name": "GOVT.P. School Patharia 470117", "amenity": "college", "water": null, "natural": null }, "geometry": { "type": "Point", "coordinates": [ 78.3599913, 24.1664646 ] } },
{ "type": "Feature", "properties": { "element": "node", "id": 12174652654, "name": "AWC  Pathariaya", "amenity": "college", "water": null, "natural": null }, "geometry": { "type": "Point", "coordinates": [ 78.3595062, 24.1646472 ] } },
{ "type": "Feature", "properties": { "element": "node", "id": 12174659469, "name": "SHC Hospital", "amenity": "hospital", "water": null, "natural": null }, "geometry": { "type": "Point", "coordinates": [ 78.3589558, 24.1622196 ] } },
{ "type": "Feature", "properties": { "element": "node", "id": 12174699235, "name": "Swasti Clinic", "amenity": "hospital", "water": null, "natural": null }, "geometry": { "type": "Point", "coordinates": [ 78.3378986, 24.1174915 ] } },
{ "type": "Feature", "properties": { "element": "node", "id": 12174708233, "name": "School   Teora", "amenity": "school", "water": null, "natural": null }, "geometry": { "type": "Point", "coordinates": [ 78.3385196, 24.1147433 ] } },
{ "type": "Feature", "properties": { "element": "node", "id": 12174719069, "name": "Middil School", "amenity": "college", "water": null, "natural": null }, "geometry": { "type": "Point", "coordinates": [ 78.3307284, 24.0932468 ] } },
{ "type": "Feature", "properties": { "element": "node", "id": 12174833689, "name": "GOVT Primary School", "amenity": "college", "water": null, "natural": null }, "geometry": { "type": "Point", "coordinates": [ 78.3436426, 24.0710838 ] } },
{ "type": "Feature", "properties": { "element": "node", "id": 12174844627, "name": "Middile School", "amenity": "college", "water": null, "natural": null }, "geometry": { "type": "Point", "coordinates": [ 78.3432846, 24.0720971 ] } },
{ "type": "Feature", "properties": { "element": "node", "id": 12176091041, "name": "Pashu Swastha Kendra", "amenity": "hospital", "water": null, "natural": null }, "geometry": { "type": "Point", "coordinates": [ 78.7403784, 23.8535237 ] } },
{ "type": "Feature", "properties": { "element": "node", "id": 12176124963, "name": "Kajlivan Prathmik School", "amenity": "college", "water": null, "natural": null }, "geometry": { "type": "Point", "coordinates": [ 78.7393785, 23.85466 ] } },
{ "type": "Feature", "properties": { "element": "node", "id": 12176125062, "name": "Hulasi Ram  Mukharya   School", "amenity": "college", "water": null, "natural": null }, "geometry": { "type": "Point", "coordinates": [ 78.739467, 23.8543959 ] } },
{ "type": "Feature", "properties": { "element": "node", "id": 12176460464, "name": "Choukesy Hospital", "amenity": "hospital", "water": null, "natural": null }, "geometry": { "type": "Point", "coordinates": [ 78.7434966, 23.8500481 ] } },
{ "type": "Feature", "properties": { "element": "node", "id": 12176461104, "name": "Sarssvati Sisu Mandir Sadar", "amenity": "college", "water": null, "natural": null }, "geometry": { "type": "Point", "coordinates": [ 78.7437995, 23.8502817 ] } },
{ "type": "Feature", "properties": { "element": "node", "id": 12176481080, "name": "MLB  School Sadar", "amenity": "college", "water": null, "natural": null }, "geometry": { "type": "Point", "coordinates": [ 78.7436896, 23.850864 ] } },
{ "type": "Feature", "properties": { "element": "node", "id": 12176483402, "name": "Saraswati Prathmik Shala Sadar Sagar", "amenity": "college", "water": null, "natural": null }, "geometry": { "type": "Point", "coordinates": [ 78.7430713, 23.8506008 ] } },
{ "type": "Feature", "properties": { "element": "node", "id": 12176485663, "name": "Shine Star Public School", "amenity": "college", "water": null, "natural": null }, "geometry": { "type": "Point", "coordinates": [ 78.7425542, 23.8498203 ] } },
{ "type": "Feature", "properties": { "element": "node", "id": 12188075140, "name": "Braunwald Hospitals P. L .T. D", "amenity": "hospital", "water": null, "natural": null }, "geometry": { "type": "Point", "coordinates": [ 78.7324308, 23.8772538 ] } },
{ "type": "Feature", "properties": { "element": "node", "id": 12188175012, "name": "High School Kudari", "amenity": "college", "water": null, "natural": null }, "geometry": { "type": "Point", "coordinates": [ 78.7254917, 23.8977174 ] } },
{ "type": "Feature", "properties": { "element": "node", "id": 12189432046, "name": "Govt. School Cornal Form House", "amenity": "college", "water": null, "natural": null }, "geometry": { "type": "Point", "coordinates": [ 78.730039, 23.9164647 ] } },
{ "type": "Feature", "properties": { "element": "node", "id": 12189450735, "name": "Middle School Gadpehara", "amenity": "college", "water": null, "natural": null }, "geometry": { "type": "Point", "coordinates": [ 78.7282492, 23.9147809 ] } },
{ "type": "Feature", "properties": { "element": "node", "id": 12189887354, "name": "Denida Up Sbastha Candr Mehar", "amenity": "hospital", "water": null, "natural": null }, "geometry": { "type": "Point", "coordinates": [ 78.6623524, 23.9850468 ] } },
{ "type": "Feature", "properties": { "element": "node", "id": 12194179162, "name": "Govt .H.S. School Mehar", "amenity": "college", "water": null, "natural": null }, "geometry": { "type": "Point", "coordinates": [ 78.6582573, 23.9883466 ] } },
{ "type": "Feature", "properties": { "element": "node", "id": 12194213305, "name": "Ramnee Devi School", "amenity": "college", "water": null, "natural": null }, "geometry": { "type": "Point", "coordinates": [ 78.6598369, 23.9892997 ] } },
{ "type": "Feature", "properties": { "element": "node", "id": 12194260034, "name": "Ramni Devi School", "amenity": "college", "water": null, "natural": null }, "geometry": { "type": "Point", "coordinates": [ 78.6552193, 23.9916776 ] } },
{ "type": "Feature", "properties": { "element": "node", "id": 12194360120, "name": "Dr. Jitendr Kumar Jain", "amenity": "hospital", "water": null, "natural": null }, "geometry": { "type": "Point", "coordinates": [ 78.6330334, 24.0401504 ] } },
{ "type": "Feature", "properties": { "element": "node", "id": 12194473132, "name": "Dr sanar Jain Bandri", "amenity": "doctors", "water": null, "natural": null }, "geometry": { "type": "Point", "coordinates": [ 78.6316102, 24.0433555 ] } },
{ "type": "Feature", "properties": { "element": "node", "id": 12201207522, "name": "Govt.Primary School Bandri", "amenity": "college", "water": null, "natural": null }, "geometry": { "type": "Point", "coordinates": [ 78.6386432, 24.0387037 ] } },
{ "type": "Feature", "properties": { "element": "node", "id": 12201210368, "name": "Veterinary Hospital Bandri", "amenity": "hospital", "water": null, "natural": null }, "geometry": { "type": "Point", "coordinates": [ 78.636487, 24.0427728 ] } },
{ "type": "Feature", "properties": { "element": "node", "id": 12201227375, "name": "Govt College Bandri  Sagar MP", "amenity": "college", "water": null, "natural": null }, "geometry": { "type": "Point", "coordinates": [ 78.6311504, 24.0403768 ] } },
{ "type": "Feature", "properties": { "element": "node", "id": 12204843052, "name": "Primary Health Centre", "amenity": "hospital", "water": null, "natural": null }, "geometry": { "type": "Point", "coordinates": [ 78.5940151, 24.1667861 ] } },
{ "type": "Feature", "properties": { "element": "node", "id": 12204861012, "name": "Government Veterinary Hospital", "amenity": "hospital", "water": null, "natural": null }, "geometry": { "type": "Point", "coordinates": [ 78.5945009, 24.1673617 ] } },
{ "type": "Feature", "properties": { "element": "node", "id": 12204881404, "name": "Governmment High Secondary School", "amenity": "school", "water": null, "natural": null }, "geometry": { "type": "Point", "coordinates": [ 78.5953768, 24.1675172 ] } },
{ "type": "Feature", "properties": { "element": "node", "id": 12206430912, "name": "Saraswati V.M.High Vidyala.....", "amenity": "college", "water": null, "natural": null }, "geometry": { "type": "Point", "coordinates": [ 78.5805198, 24.2060806 ] } },
{ "type": "Feature", "properties": { "element": "relation", "id": 1636238, "name": null, "amenity": null, "water": null, "natural": "water" }, "geometry": { "type": "Polygon", "coordinates": [ [ [ 78.544178, 24.3067404 ], [ 78.5448647, 24.3064275 ], [ 78.5448647, 24.3061146 ], [ 78.5433197, 24.3050195 ], [ 78.5422897, 24.3050195 ], [ 78.5412598, 24.3056453 ], [ 78.5400581, 24.3070533 ], [ 78.5405731, 24.3084613 ], [ 78.5412598, 24.3078355 ], [ 78.5417747, 24.3083048 ], [ 78.5424614, 24.3095564 ], [ 78.5421181, 24.3114336 ], [ 78.5426331, 24.311903 ], [ 78.5438347, 24.3117465 ], [ 78.5440063, 24.3112772 ], [ 78.5443497, 24.3115901 ], [ 78.545208, 24.3114336 ], [ 78.5445213, 24.310495 ], [ 78.544178, 24.3089306 ], [ 78.5438347, 24.3073662 ], [ 78.544178, 24.3067404 ] ], [ [ 78.543148, 24.3108079 ], [ 78.5433197, 24.3103386 ], [ 78.544178, 24.3108079 ], [ 78.5433197, 24.3109643 ], [ 78.543148, 24.3108079 ] ] ] } },
{ "type": "Feature", "properties": { "element": "relation", "id": 1666296, "name": null, "amenity": null, "water": null, "natural": "water" }, "geometry": { "type": "Polygon", "coordinates": [ [ [ 78.5845184, 24.0974021 ], [ 78.5834885, 24.0970887 ], [ 78.5831451, 24.0974021 ], [ 78.5826302, 24.096932 ], [ 78.5834885, 24.0967753 ], [ 78.5840034, 24.0963052 ], [ 78.5838318, 24.0942681 ], [ 78.5824585, 24.0952083 ], [ 78.5817719, 24.0942681 ], [ 78.5805702, 24.0947382 ], [ 78.5802269, 24.0972454 ], [ 78.5791969, 24.0988124 ], [ 78.5800552, 24.0992825 ], [ 78.5807419, 24.0989691 ], [ 78.5817719, 24.1002227 ], [ 78.5821152, 24.1002227 ], [ 78.5824585, 24.0995959 ], [ 78.5828018, 24.0999093 ], [ 78.5843468, 24.0988124 ], [ 78.5850334, 24.0978722 ], [ 78.5845184, 24.0974021 ] ], [ [ 78.5807419, 24.0977155 ], [ 78.5810852, 24.0977155 ], [ 78.5810852, 24.0983423 ], [ 78.5805702, 24.0978722 ], [ 78.5807419, 24.0977155 ] ] ] } },
{ "type": "Feature", "properties": { "element": "relation", "id": 2814833, "name": null, "amenity": null, "water": "river", "natural": "water" }, "geometry": { "type": "Polygon", "coordinates": [ [ [ 78.2479419, 24.4866487 ], [ 78.2489768, 24.4861638 ], [ 78.2500925, 24.4856171 ], [ 78.2537228, 24.4842424 ], [ 78.2565121, 24.483766 ], [ 78.2591898, 24.4832661 ], [ 78.2616358, 24.4829146 ], [ 78.2652748, 24.4822038 ], [ 78.2662188, 24.4819226 ], [ 78.2674976, 24.4814149 ], [ 78.2685962, 24.4809697 ], [ 78.2695059, 24.4806339 ], [ 78.2704671, 24.4800793 ], [ 78.2718317, 24.4789936 ], [ 78.2728187, 24.4781344 ], [ 78.27378, 24.477572 ], [ 78.2746382, 24.4766581 ], [ 78.2754106, 24.4762519 ], [ 78.2757367, 24.4759863 ], [ 78.2761916, 24.4752755 ], [ 78.2765778, 24.4743928 ], [ 78.2769469, 24.4726509 ], [ 78.2768954, 24.4718463 ], [ 78.2765263, 24.4706121 ], [ 78.2762946, 24.4695419 ], [ 78.2752086, 24.467741 ], [ 78.2738735, 24.4659403 ], [ 78.2726234, 24.464261 ], [ 78.2718223, 24.4634324 ], [ 78.2698925, 24.4618305 ], [ 78.2681568, 24.4603501 ], [ 78.2674529, 24.4592784 ], [ 78.266846, 24.4579968 ], [ 78.2672708, 24.4558756 ], [ 78.2676106, 24.4538095 ], [ 78.2679141, 24.4514561 ], [ 78.2679909, 24.45111 ], [ 78.2681733, 24.4507242 ], [ 78.2673794, 24.4499527 ], [ 78.2671004, 24.4501334 ], [ 78.2670146, 24.4501236 ], [ 78.2669309, 24.4492905 ], [ 78.2667853, 24.4483624 ], [ 78.2669067, 24.4470034 ], [ 78.2666761, 24.444672 ], [ 78.2665547, 24.443777 ], [ 78.2660571, 24.4427494 ], [ 78.2647826, 24.4409483 ], [ 78.2630349, 24.438893 ], [ 78.2607409, 24.4370587 ], [ 78.2577065, 24.4350697 ], [ 78.2549028, 24.4333458 ], [ 78.2523176, 24.4320198 ], [ 78.2504484, 24.4310142 ], [ 78.2489919, 24.4303733 ], [ 78.248385, 24.4296771 ], [ 78.2479117, 24.428793 ], [ 78.2474141, 24.4282405 ], [ 78.2468315, 24.4278537 ], [ 78.2450473, 24.427047 ], [ 78.2443433, 24.426837 ], [ 78.2426198, 24.4263508 ], [ 78.2408356, 24.4261297 ], [ 78.2387237, 24.4261187 ], [ 78.2362841, 24.4258866 ], [ 78.2342814, 24.4253562 ], [ 78.2317204, 24.4245384 ], [ 78.229827, 24.4237095 ], [ 78.2281156, 24.4229028 ], [ 78.225057, 24.4215214 ], [ 78.2241103, 24.4209025 ], [ 78.2225446, 24.4199852 ], [ 78.2211731, 24.4187474 ], [ 78.22002, 24.4174875 ], [ 78.2187456, 24.4152219 ], [ 78.217726, 24.4138293 ], [ 78.2160996, 24.4116189 ], [ 78.2153593, 24.4109005 ], [ 78.2144854, 24.4095742 ], [ 78.2132109, 24.4080158 ], [ 78.2126283, 24.4074079 ], [ 78.2107835, 24.4069769 ], [ 78.209861, 24.4067669 ], [ 78.2089264, 24.4064795 ], [ 78.2071908, 24.4060153 ], [ 78.2058193, 24.4052968 ], [ 78.2037438, 24.4046558 ], [ 78.2020324, 24.4043684 ], [ 78.2010857, 24.4041252 ], [ 78.1988524, 24.4033294 ], [ 78.1956603, 24.4023678 ], [ 78.1934998, 24.4019478 ], [ 78.1905626, 24.4008867 ], [ 78.187504, 24.3996598 ], [ 78.1848216, 24.3981344 ], [ 78.1824427, 24.397427 ], [ 78.1808406, 24.3970512 ], [ 78.1773693, 24.3967859 ], [ 78.1737077, 24.3967912 ], [ 78.1710299, 24.3969476 ], [ 78.1680433, 24.3961972 ], [ 78.1666014, 24.3984482 ], [ 78.1686269, 24.3991048 ], [ 78.1724375, 24.3991048 ], [ 78.1754928, 24.3991673 ], [ 78.1790631, 24.3992611 ], [ 78.1813975, 24.3994799 ], [ 78.1836289, 24.4001365 ], [ 78.185826, 24.4008868 ], [ 78.1869589, 24.4018247 ], [ 78.1913531, 24.4033253 ], [ 78.1943918, 24.4044757 ], [ 78.1965031, 24.4051948 ], [ 78.1982882, 24.4055699 ], [ 78.200142, 24.4061639 ], [ 78.2014809, 24.4067891 ], [ 78.2034892, 24.4074769 ], [ 78.2049653, 24.407852 ], [ 78.2056519, 24.408149 ], [ 78.2070766, 24.4088993 ], [ 78.207643, 24.4098371 ], [ 78.2085185, 24.4106499 ], [ 78.2092222, 24.4113689 ], [ 78.2101491, 24.4119472 ], [ 78.210973, 24.4122285 ], [ 78.2118999, 24.4123536 ], [ 78.2130328, 24.4128381 ], [ 78.2136851, 24.4133539 ], [ 78.214509, 24.4146043 ], [ 78.2158135, 24.4163236 ], [ 78.2177188, 24.4190431 ], [ 78.2184226, 24.4199653 ], [ 78.2200704, 24.4209499 ], [ 78.2224391, 24.4225284 ], [ 78.225031, 24.4237162 ], [ 78.2277946, 24.4248259 ], [ 78.2333216, 24.427092 ], [ 78.2346948, 24.4275296 ], [ 78.2369949, 24.4283267 ], [ 78.2398786, 24.4290612 ], [ 78.2414063, 24.4295144 ], [ 78.242625, 24.4298738 ], [ 78.2438094, 24.4302802 ], [ 78.2455602, 24.4305302 ], [ 78.2464184, 24.4309053 ], [ 78.2473453, 24.4313429 ], [ 78.2487185, 24.4320305 ], [ 78.250641, 24.433312 ], [ 78.2527351, 24.4345153 ], [ 78.2540224, 24.4353592 ], [ 78.2556359, 24.4362343 ], [ 78.2582278, 24.4379064 ], [ 78.2597212, 24.438844 ], [ 78.2607511, 24.439766 ], [ 78.2622272, 24.4412349 ], [ 78.2633944, 24.4429382 ], [ 78.2641497, 24.4448915 ], [ 78.2640982, 24.446251 ], [ 78.2638407, 24.4471416 ], [ 78.2634803, 24.4477042 ], [ 78.2622616, 24.4479386 ], [ 78.2598756, 24.4488136 ], [ 78.2590002, 24.4498136 ], [ 78.2590346, 24.4507824 ], [ 78.2596697, 24.4519074 ], [ 78.2605966, 24.4530481 ], [ 78.2618153, 24.4547043 ], [ 78.2633773, 24.4571731 ], [ 78.2645273, 24.458923 ], [ 78.2671879, 24.462251 ], [ 78.2683207, 24.4637509 ], [ 78.2700887, 24.4652195 ], [ 78.2708955, 24.4662194 ], [ 78.2721828, 24.4673755 ], [ 78.2732642, 24.4688441 ], [ 78.2737448, 24.4693909 ], [ 78.2741911, 24.4702815 ], [ 78.2742083, 24.4708283 ], [ 78.274071, 24.4715001 ], [ 78.2741911, 24.4720468 ], [ 78.2735732, 24.4742653 ], [ 78.2728694, 24.4752807 ], [ 78.2717365, 24.4763743 ], [ 78.2692476, 24.477546 ], [ 78.2672394, 24.4777803 ], [ 78.2651109, 24.4774366 ], [ 78.2640467, 24.4775928 ], [ 78.262931, 24.4779209 ], [ 78.2616436, 24.4786551 ], [ 78.2601674, 24.4795924 ], [ 78.2592405, 24.4801548 ], [ 78.2571636, 24.4805454 ], [ 78.2544687, 24.4811078 ], [ 78.2512932, 24.4815764 ], [ 78.2488387, 24.4820763 ], [ 78.24762, 24.4827168 ], [ 78.2467747, 24.4833836 ], [ 78.2479419, 24.4866487 ] ], [ [ 78.2094242, 24.4091063 ], [ 78.210553, 24.4097252 ], [ 78.211524, 24.4101452 ], [ 78.2125557, 24.410742 ], [ 78.2134053, 24.4113167 ], [ 78.2137209, 24.4117257 ], [ 78.2137816, 24.412212 ], [ 78.2131626, 24.4121788 ], [ 78.2124829, 24.4120241 ], [ 78.211791, 24.4118362 ], [ 78.2112206, 24.4117367 ], [ 78.2104195, 24.4117146 ], [ 78.2098855, 24.4112836 ], [ 78.2091572, 24.4106868 ], [ 78.2086717, 24.4103441 ], [ 78.2083076, 24.409681 ], [ 78.2082469, 24.4093273 ], [ 78.2086717, 24.4090731 ], [ 78.2094242, 24.4091063 ] ], [ [ 78.2418553, 24.428093 ], [ 78.241649, 24.4278168 ], [ 78.2433118, 24.4280157 ], [ 78.2442464, 24.4281372 ], [ 78.2456543, 24.4285682 ], [ 78.2464068, 24.428955 ], [ 78.246868, 24.4293307 ], [ 78.24722, 24.4298722 ], [ 78.2464311, 24.4295517 ], [ 78.2457514, 24.4293528 ], [ 78.2445498, 24.4290103 ], [ 78.2434453, 24.428513 ], [ 78.2429719, 24.4283472 ], [ 78.2422558, 24.4281925 ], [ 78.2418553, 24.428093 ] ], [ [ 78.2605461, 24.4522195 ], [ 78.2599999, 24.4515013 ], [ 78.2595144, 24.4510152 ], [ 78.2594416, 24.4507058 ], [ 78.2594901, 24.4502197 ], [ 78.2597329, 24.4498219 ], [ 78.2599149, 24.4495457 ], [ 78.2604368, 24.4491148 ], [ 78.2607646, 24.4488054 ], [ 78.2613714, 24.4485513 ], [ 78.2617598, 24.4484408 ], [ 78.2624759, 24.4483745 ], [ 78.2630221, 24.4484076 ], [ 78.2636047, 24.4482198 ], [ 78.2637868, 24.4479878 ], [ 78.263981, 24.4479546 ], [ 78.2640295, 24.4483634 ], [ 78.2639203, 24.4490485 ], [ 78.2634955, 24.4503633 ], [ 78.2632406, 24.4513798 ], [ 78.2623788, 24.4534901 ], [ 78.2621604, 24.4538436 ], [ 78.2620147, 24.4543187 ], [ 78.2617477, 24.4541309 ], [ 78.2612865, 24.4531255 ], [ 78.2610194, 24.4528603 ], [ 78.2605461, 24.4522195 ] ] ] } },
{ "type": "Feature", "properties": { "element": "relation", "id": 2814835, "name": null, "amenity": null, "water": "river", "natural": "water" }, "geometry": { "type": "Polygon", "coordinates": [ [ [ 78.06109, 24.2333586 ], [ 78.0610804, 24.2317736 ], [ 78.0613551, 24.2297388 ], [ 78.0616297, 24.2273283 ], [ 78.0619902, 24.2258725 ], [ 78.0620588, 24.2247298 ], [ 78.0616126, 24.2230393 ], [ 78.0602394, 24.2214426 ], [ 78.0588662, 24.2203155 ], [ 78.0575273, 24.2194389 ], [ 78.0565661, 24.2188597 ], [ 78.055828, 24.2186249 ], [ 78.0550384, 24.2184057 ], [ 78.0541287, 24.2182335 ], [ 78.052498, 24.2181866 ], [ 78.0511763, 24.2179831 ], [ 78.0506614, 24.21803 ], [ 78.0500435, 24.2179831 ], [ 78.0493054, 24.2177639 ], [ 78.0484128, 24.217263 ], [ 78.0476575, 24.215541 ], [ 78.0461642, 24.212003 ], [ 78.0452888, 24.2090442 ], [ 78.0444649, 24.2063671 ], [ 78.0428342, 24.2039561 ], [ 78.0406543, 24.2012633 ], [ 78.0381139, 24.1988835 ], [ 78.036037, 24.1961123 ], [ 78.0354362, 24.1947658 ], [ 78.0350757, 24.1939047 ], [ 78.0348011, 24.1929182 ], [ 78.0350929, 24.1915717 ], [ 78.0371012, 24.189364 ], [ 78.0389378, 24.1878922 ], [ 78.0402595, 24.1866395 ], [ 78.0410319, 24.1853086 ], [ 78.0416842, 24.1834766 ], [ 78.0418387, 24.1808303 ], [ 78.0416842, 24.1788416 ], [ 78.0409461, 24.1763361 ], [ 78.0398819, 24.173674 ], [ 78.0380967, 24.1713877 ], [ 78.0367579, 24.1706673 ], [ 78.0357451, 24.1703541 ], [ 78.0350757, 24.1701662 ], [ 78.0338913, 24.1698217 ], [ 78.0327928, 24.1692579 ], [ 78.0324323, 24.16824 ], [ 78.0324667, 24.1669089 ], [ 78.0332391, 24.1653115 ], [ 78.0337197, 24.1625709 ], [ 78.0342861, 24.1608012 ], [ 78.0351444, 24.1594073 ], [ 78.0354362, 24.1579038 ], [ 78.0362429, 24.1542703 ], [ 78.0364146, 24.1512788 ], [ 78.036878, 24.1485692 ], [ 78.036981, 24.1474728 ], [ 78.0368437, 24.1463451 ], [ 78.0364832, 24.144998 ], [ 78.0355048, 24.1431654 ], [ 78.0341831, 24.1408472 ], [ 78.0335824, 24.140064 ], [ 78.0328786, 24.1387796 ], [ 78.0314883, 24.1362577 ], [ 78.0309733, 24.1350046 ], [ 78.030733, 24.1337044 ], [ 78.0304755, 24.1318247 ], [ 78.0301837, 24.1293026 ], [ 78.0296688, 24.1267492 ], [ 78.0292912, 24.1245873 ], [ 78.0292225, 24.1214698 ], [ 78.0293427, 24.1195272 ], [ 78.0295486, 24.1184933 ], [ 78.0302009, 24.1171146 ], [ 78.0308703, 24.1160023 ], [ 78.0321062, 24.1151563 ], [ 78.0331876, 24.1146393 ], [ 78.0343376, 24.1140596 ], [ 78.0351615, 24.1139029 ], [ 78.0361914, 24.1138559 ], [ 78.0369982, 24.1136679 ], [ 78.0377363, 24.1132919 ], [ 78.038337, 24.1127592 ], [ 78.0386117, 24.1119132 ], [ 78.0406715, 24.1096884 ], [ 78.0411864, 24.1093438 ], [ 78.0417357, 24.1084507 ], [ 78.0422163, 24.1073383 ], [ 78.0423879, 24.1060222 ], [ 78.0424394, 24.1052388 ], [ 78.0424051, 24.1026536 ], [ 78.0424223, 24.1001466 ], [ 78.0423364, 24.0989558 ], [ 78.041976, 24.0972009 ], [ 78.0410834, 24.094161 ], [ 78.0398304, 24.0918106 ], [ 78.0383199, 24.0885356 ], [ 78.0358481, 24.084289 ], [ 78.0342518, 24.0809354 ], [ 78.0329816, 24.0784907 ], [ 78.0312995, 24.0761557 ], [ 78.0297031, 24.0747922 ], [ 78.0290165, 24.0742908 ], [ 78.0279008, 24.0736169 ], [ 78.0257724, 24.0719086 ], [ 78.0243134, 24.0699809 ], [ 78.0237167, 24.0691035 ], [ 78.0225128, 24.0665425 ], [ 78.0219894, 24.0649535 ], [ 78.0215707, 24.0621112 ], [ 78.021605, 24.0598909 ], [ 78.0217578, 24.0586265 ], [ 78.0222007, 24.0576521 ], [ 78.0230402, 24.0561154 ], [ 78.0239514, 24.0552076 ], [ 78.0242632, 24.0548703 ], [ 78.025222, 24.0539393 ], [ 78.0268242, 24.0533518 ], [ 78.028839, 24.0530415 ], [ 78.0294094, 24.052975 ], [ 78.0305503, 24.0528863 ], [ 78.0316912, 24.0528531 ], [ 78.0324074, 24.0528753 ], [ 78.0332873, 24.0528808 ], [ 78.0341551, 24.0532078 ], [ 78.0347013, 24.053374 ], [ 78.0352718, 24.0535513 ], [ 78.0359636, 24.0537176 ], [ 78.0367283, 24.0537619 ], [ 78.0374808, 24.0537841 ], [ 78.038027, 24.0537287 ], [ 78.0386702, 24.0533851 ], [ 78.0393499, 24.0529972 ], [ 78.0396776, 24.0526647 ], [ 78.0399932, 24.0521327 ], [ 78.0399325, 24.0513568 ], [ 78.0396169, 24.049794 ], [ 78.0388159, 24.0478765 ], [ 78.0382212, 24.0466019 ], [ 78.0368618, 24.0442631 ], [ 78.0365947, 24.0436535 ], [ 78.0362792, 24.0430771 ], [ 78.0357573, 24.0418246 ], [ 78.0354781, 24.0410819 ], [ 78.0351747, 24.0407383 ], [ 78.0345678, 24.0405055 ], [ 78.033524, 24.0404501 ], [ 78.032553, 24.0407826 ], [ 78.0320554, 24.0406385 ], [ 78.0312422, 24.0399845 ], [ 78.030429, 24.038998 ], [ 78.0301498, 24.038344 ], [ 78.0300406, 24.0379006 ], [ 78.0300284, 24.0367367 ], [ 78.0301619, 24.035207 ], [ 78.0303925, 24.0327683 ], [ 78.0305625, 24.0308394 ], [ 78.0307445, 24.0292542 ], [ 78.030611, 24.027669 ], [ 78.0302105, 24.0258952 ], [ 78.0295551, 24.0245206 ], [ 78.0285719, 24.0230461 ], [ 78.0265814, 24.0210285 ], [ 78.0253677, 24.0200529 ], [ 78.0230373, 24.018534 ], [ 78.0209497, 24.0171815 ], [ 78.0197359, 24.0164498 ], [ 78.0186314, 24.0160728 ], [ 78.0167016, 24.0156848 ], [ 78.0142013, 24.0148089 ], [ 78.0132789, 24.0160617 ], [ 78.0144926, 24.0164387 ], [ 78.015585, 24.0167159 ], [ 78.0167744, 24.0169598 ], [ 78.0176483, 24.0172591 ], [ 78.0188014, 24.0174587 ], [ 78.0201001, 24.018013 ], [ 78.0212531, 24.0187114 ], [ 78.022661, 24.0195762 ], [ 78.0241661, 24.0206294 ], [ 78.025222, 24.0214387 ], [ 78.0262901, 24.022514 ], [ 78.0277951, 24.024055 ], [ 78.0284506, 24.0250971 ], [ 78.0289239, 24.0261169 ], [ 78.0293123, 24.0272477 ], [ 78.0293851, 24.0289105 ], [ 78.0292638, 24.0308062 ], [ 78.0290453, 24.0327904 ], [ 78.0285598, 24.0348744 ], [ 78.0285962, 24.0367034 ], [ 78.0286933, 24.0385879 ], [ 78.0291667, 24.0394968 ], [ 78.02964, 24.0405831 ], [ 78.0310116, 24.0421127 ], [ 78.0326258, 24.0436978 ], [ 78.0346406, 24.0450057 ], [ 78.0366069, 24.0471561 ], [ 78.0377357, 24.0484307 ], [ 78.038476, 24.0502041 ], [ 78.0385731, 24.0507029 ], [ 78.0384518, 24.0515896 ], [ 78.0382818, 24.052044 ], [ 78.037942, 24.0523322 ], [ 78.0373351, 24.0524652 ], [ 78.0364734, 24.0524763 ], [ 78.0358301, 24.0522102 ], [ 78.0347062, 24.0515092 ], [ 78.0338089, 24.0513116 ], [ 78.0325647, 24.0512387 ], [ 78.0311124, 24.0512349 ], [ 78.0286741, 24.0514566 ], [ 78.0269819, 24.0518334 ], [ 78.0260311, 24.0520949 ], [ 78.0247942, 24.0526342 ], [ 78.0238464, 24.0533178 ], [ 78.0231678, 24.0536692 ], [ 78.0226732, 24.0541499 ], [ 78.0222848, 24.0545932 ], [ 78.02186, 24.0551252 ], [ 78.0213138, 24.0559564 ], [ 78.0203549, 24.0577297 ], [ 78.0198209, 24.058971 ], [ 78.0195417, 24.0604894 ], [ 78.0203307, 24.064723 ], [ 78.020804, 24.0662634 ], [ 78.0214926, 24.0681227 ], [ 78.0216536, 24.0685574 ], [ 78.0224426, 24.0700313 ], [ 78.0237291, 24.0719596 ], [ 78.0248943, 24.0735554 ], [ 78.0262173, 24.0744419 ], [ 78.0278073, 24.0752509 ], [ 78.0297857, 24.0769131 ], [ 78.0305382, 24.0777109 ], [ 78.0314485, 24.0790518 ], [ 78.0328564, 24.0817445 ], [ 78.0342644, 24.0844482 ], [ 78.0355752, 24.0868638 ], [ 78.0370074, 24.0894677 ], [ 78.0378085, 24.0914289 ], [ 78.0385731, 24.093379 ], [ 78.0393135, 24.0946975 ], [ 78.0395077, 24.0960382 ], [ 78.0397747, 24.0966586 ], [ 78.0399568, 24.0974785 ], [ 78.0402238, 24.099074 ], [ 78.0401753, 24.0997277 ], [ 78.0402481, 24.1002373 ], [ 78.0405879, 24.1011126 ], [ 78.0407943, 24.1023535 ], [ 78.0407821, 24.1030071 ], [ 78.0407821, 24.1037273 ], [ 78.0406001, 24.1046579 ], [ 78.0406244, 24.1054999 ], [ 78.0410734, 24.1062533 ], [ 78.0411341, 24.1069069 ], [ 78.0410856, 24.107904 ], [ 78.04077, 24.108037 ], [ 78.0400782, 24.1084801 ], [ 78.0395805, 24.1092224 ], [ 78.0387673, 24.1099536 ], [ 78.0378206, 24.1110503 ], [ 78.0363156, 24.1121693 ], [ 78.0345921, 24.1128672 ], [ 78.0334876, 24.1130777 ], [ 78.0310844, 24.1140636 ], [ 78.0302469, 24.1147726 ], [ 78.0296886, 24.1154262 ], [ 78.0286812, 24.1168664 ], [ 78.0281714, 24.1178302 ], [ 78.0279044, 24.1185281 ], [ 78.0275888, 24.1194254 ], [ 78.0273825, 24.1204334 ], [ 78.0274553, 24.1210095 ], [ 78.0275281, 24.1219732 ], [ 78.0274432, 24.1230588 ], [ 78.0274432, 24.123945 ], [ 78.027516, 24.1250306 ], [ 78.0277466, 24.1260718 ], [ 78.0280622, 24.1274565 ], [ 78.0284991, 24.1286528 ], [ 78.0285841, 24.1293174 ], [ 78.0288147, 24.1299709 ], [ 78.029106, 24.1305469 ], [ 78.0291545, 24.1317211 ], [ 78.0294094, 24.1331721 ], [ 78.0296036, 24.1348446 ], [ 78.0300891, 24.1358415 ], [ 78.0306474, 24.1369381 ], [ 78.0311936, 24.1385552 ], [ 78.0320675, 24.1399397 ], [ 78.032468, 24.1414349 ], [ 78.0336211, 24.1429412 ], [ 78.0347984, 24.1445693 ], [ 78.0353446, 24.1458098 ], [ 78.0355267, 24.147017 ], [ 78.0356844, 24.1485011 ], [ 78.0349805, 24.151148 ], [ 78.0348591, 24.1517239 ], [ 78.034677, 24.1528757 ], [ 78.0346285, 24.1537396 ], [ 78.034677, 24.1548913 ], [ 78.0347013, 24.1561428 ], [ 78.0345435, 24.1572391 ], [ 78.0339852, 24.1588117 ], [ 78.0335968, 24.1595205 ], [ 78.033087, 24.1604728 ], [ 78.0321039, 24.1619014 ], [ 78.031667, 24.1636843 ], [ 78.0315335, 24.1650132 ], [ 78.0312664, 24.1662977 ], [ 78.0307809, 24.1676376 ], [ 78.0307688, 24.1687118 ], [ 78.0310116, 24.1692876 ], [ 78.0313393, 24.1697748 ], [ 78.0321403, 24.1706053 ], [ 78.0328079, 24.1709043 ], [ 78.0334997, 24.1710815 ], [ 78.0342401, 24.1710925 ], [ 78.0348348, 24.1710815 ], [ 78.0353082, 24.1711368 ], [ 78.0358786, 24.1714136 ], [ 78.0364248, 24.1717791 ], [ 78.0367283, 24.1722109 ], [ 78.0372137, 24.1725985 ], [ 78.0378328, 24.1732186 ], [ 78.0385736, 24.1749996 ], [ 78.039449, 24.1776461 ], [ 78.039449, 24.1799949 ], [ 78.0393975, 24.1810597 ], [ 78.0390885, 24.1821871 ], [ 78.0384706, 24.1836903 ], [ 78.037475, 24.1853971 ], [ 78.0365996, 24.1866341 ], [ 78.0355182, 24.1876205 ], [ 78.0341451, 24.189108 ], [ 78.0332353, 24.1906268 ], [ 78.032686, 24.1918794 ], [ 78.0327204, 24.1926623 ], [ 78.032789, 24.1935078 ], [ 78.0332182, 24.1947603 ], [ 78.0337159, 24.1962791 ], [ 78.0349518, 24.1978134 ], [ 78.0371832, 24.2002715 ], [ 78.0396206, 24.2026826 ], [ 78.0415431, 24.2048431 ], [ 78.0432424, 24.2080681 ], [ 78.0439462, 24.2106826 ], [ 78.0451992, 24.2153007 ], [ 78.0460231, 24.2167722 ], [ 78.0470015, 24.2184472 ], [ 78.0477739, 24.2189795 ], [ 78.0484434, 24.2194648 ], [ 78.0492501, 24.2197778 ], [ 78.0501427, 24.2195743 ], [ 78.0506233, 24.2193865 ], [ 78.0516017, 24.2196683 ], [ 78.0524084, 24.21995 ], [ 78.053095, 24.2199187 ], [ 78.0536958, 24.2196056 ], [ 78.0543481, 24.2200753 ], [ 78.0551033, 24.2205292 ], [ 78.0561847, 24.220811 ], [ 78.0569743, 24.2212493 ], [ 78.0579355, 24.222032 ], [ 78.0585191, 24.2234721 ], [ 78.0585191, 24.2241922 ], [ 78.058193, 24.2246461 ], [ 78.0578154, 24.2252723 ], [ 78.0575579, 24.2258045 ], [ 78.0575579, 24.2268063 ], [ 78.0574892, 24.2281368 ], [ 78.057781, 24.2292794 ], [ 78.0579527, 24.2310951 ], [ 78.0580042, 24.2321595 ], [ 78.0584573, 24.2328428 ], [ 78.06109, 24.2333586 ] ], [ [ 78.0329913, 24.0410813 ], [ 78.0331544, 24.040952 ], [ 78.0333603, 24.0408423 ], [ 78.0339053, 24.0408148 ], [ 78.0343001, 24.0407952 ], [ 78.0345705, 24.0408305 ], [ 78.0348623, 24.0409402 ], [ 78.034991, 24.0410578 ], [ 78.0351884, 24.0413086 ], [ 78.0352571, 24.0414967 ], [ 78.0353171, 24.0417475 ], [ 78.0353944, 24.0419866 ], [ 78.0355017, 24.0423119 ], [ 78.0355617, 24.0426175 ], [ 78.0354244, 24.0427743 ], [ 78.0351884, 24.0426646 ], [ 78.0349996, 24.0425078 ], [ 78.0348494, 24.0422217 ], [ 78.034682, 24.0419592 ], [ 78.0344417, 24.0417475 ], [ 78.0338924, 24.041336 ], [ 78.0334505, 24.041242 ], [ 78.0330042, 24.0412106 ], [ 78.0329913, 24.0410813 ] ], [ [ 78.0283428, 24.1259272 ], [ 78.0281304, 24.1253678 ], [ 78.0278937, 24.1246699 ], [ 78.0283731, 24.1250465 ], [ 78.0285552, 24.1258718 ], [ 78.0286948, 24.1264256 ], [ 78.0287858, 24.1268687 ], [ 78.0288283, 24.1274669 ], [ 78.0285309, 24.1269352 ], [ 78.0284702, 24.1263426 ], [ 78.0283428, 24.1259272 ] ], [ [ 78.0338073, 24.1605941 ], [ 78.0339662, 24.1605054 ], [ 78.0340901, 24.1605589 ], [ 78.0340042, 24.1607214 ], [ 78.0339077, 24.1608799 ], [ 78.0338433, 24.1609896 ], [ 78.0337854, 24.1611109 ], [ 78.0336631, 24.1612245 ], [ 78.0335944, 24.1611931 ], [ 78.0335494, 24.1611266 ], [ 78.0336528, 24.1607674 ], [ 78.0338073, 24.1605941 ] ], [ [ 78.0334625, 24.1616516 ], [ 78.0334747, 24.1615491 ], [ 78.0335232, 24.1614799 ], [ 78.0336173, 24.1613886 ], [ 78.0336932, 24.1613581 ], [ 78.0337812, 24.1613609 ], [ 78.0338661, 24.1614024 ], [ 78.0338874, 24.1614716 ], [ 78.0338145, 24.161563 ], [ 78.0337296, 24.1616488 ], [ 78.0336446, 24.1617512 ], [ 78.03359, 24.1618232 ], [ 78.0335081, 24.1617762 ], [ 78.0334625, 24.1616516 ] ], [ [ 78.0608389, 24.2254985 ], [ 78.0607188, 24.2257568 ], [ 78.0604012, 24.2259838 ], [ 78.0603755, 24.2255064 ], [ 78.0602467, 24.2250133 ], [ 78.0599892, 24.2246454 ], [ 78.0598777, 24.2243089 ], [ 78.0593971, 24.2236045 ], [ 78.059234, 24.2232758 ], [ 78.0596803, 24.2229157 ], [ 78.0600322, 24.2231818 ], [ 78.0603497, 24.223534 ], [ 78.0606329, 24.2237923 ], [ 78.0609419, 24.2240115 ], [ 78.0612337, 24.2241993 ], [ 78.0612251, 24.2245985 ], [ 78.0609247, 24.2246533 ], [ 78.0608647, 24.2243637 ], [ 78.0607102, 24.2244185 ], [ 78.0608389, 24.2248098 ], [ 78.0608732, 24.2251229 ], [ 78.0608389, 24.2254985 ] ], [ [ 78.0584192, 24.2260898 ], [ 78.0583591, 24.2256828 ], [ 78.0584449, 24.2253698 ], [ 78.0585222, 24.2250332 ], [ 78.0587711, 24.2247436 ], [ 78.0589685, 24.2247123 ], [ 78.0591487, 24.2248141 ], [ 78.0594233, 24.2251663 ], [ 78.0594062, 24.2256437 ], [ 78.0594147, 24.225855 ], [ 78.0594405, 24.2261681 ], [ 78.0594662, 24.2265438 ], [ 78.0593547, 24.227029 ], [ 78.0592603, 24.2273264 ], [ 78.0591229, 24.2276708 ], [ 78.0589084, 24.2280151 ], [ 78.0587539, 24.2282734 ], [ 78.0586337, 24.2277803 ], [ 78.058608, 24.2275142 ], [ 78.0586423, 24.2272873 ], [ 78.058608, 24.2269507 ], [ 78.0585222, 24.2264733 ], [ 78.0584192, 24.2260898 ] ], [ [ 78.0596636, 24.2297526 ], [ 78.0599125, 24.2294787 ], [ 78.0598181, 24.2288134 ], [ 78.0599297, 24.2285943 ], [ 78.06017, 24.228516 ], [ 78.0604017, 24.2285865 ], [ 78.060745, 24.2293926 ], [ 78.060642, 24.2296978 ], [ 78.0606077, 24.2300891 ], [ 78.060479, 24.2305352 ], [ 78.0603245, 24.2308718 ], [ 78.0600327, 24.2313413 ], [ 78.0599469, 24.2317718 ], [ 78.0597666, 24.2310283 ], [ 78.0595864, 24.2303709 ], [ 78.0596036, 24.2300735 ], [ 78.0596636, 24.2297526 ] ], [ [ 78.060487, 24.2331058 ], [ 78.0602467, 24.2325501 ], [ 78.0602725, 24.2322058 ], [ 78.060487, 24.2321823 ], [ 78.0605814, 24.2322762 ], [ 78.0607188, 24.2325893 ], [ 78.0608046, 24.2330119 ], [ 78.0606072, 24.2332154 ], [ 78.060487, 24.2331058 ] ] ] } },
{ "type": "Feature", "properties": { "element": "relation", "id": 2818126, "name": null, "amenity": null, "water": "river", "natural": "water" }, "geometry": { "type": "Polygon", "coordinates": [ [ [ 78.9403397, 24.3148396 ], [ 78.9426636, 24.3170609 ], [ 78.9434972, 24.3181083 ], [ 78.9443434, 24.3195585 ], [ 78.9449118, 24.3205713 ], [ 78.9453412, 24.3221251 ], [ 78.9460611, 24.3235177 ], [ 78.9474631, 24.3251289 ], [ 78.9482335, 24.325969 ], [ 78.9503049, 24.3283859 ], [ 78.9511132, 24.3295022 ], [ 78.9520857, 24.3309062 ], [ 78.9531087, 24.332011 ], [ 78.9542455, 24.3331618 ], [ 78.9558621, 24.3351527 ], [ 78.9565441, 24.3357396 ], [ 78.9570999, 24.3365222 ], [ 78.9580345, 24.337765 ], [ 78.9587165, 24.3390769 ], [ 78.9596006, 24.340757 ], [ 78.9608005, 24.3423565 ], [ 78.9610278, 24.3429434 ], [ 78.9615709, 24.3435762 ], [ 78.9625056, 24.3440595 ], [ 78.9636675, 24.3446349 ], [ 78.9643495, 24.3449801 ], [ 78.9651452, 24.3453368 ], [ 78.9661809, 24.3455325 ], [ 78.9675702, 24.3457856 ], [ 78.9685175, 24.3460618 ], [ 78.9693763, 24.3463149 ], [ 78.9702352, 24.3470168 ], [ 78.9709298, 24.3478799 ], [ 78.9713466, 24.3486738 ], [ 78.9713087, 24.3492722 ], [ 78.9711446, 24.3498475 ], [ 78.9710056, 24.3505494 ], [ 78.9711446, 24.3511823 ], [ 78.9715866, 24.3516655 ], [ 78.9719781, 24.3522293 ], [ 78.9722181, 24.3531153 ], [ 78.9724833, 24.3546917 ], [ 78.9725591, 24.3552785 ], [ 78.9723192, 24.3563486 ], [ 78.9721171, 24.3570619 ], [ 78.9720918, 24.3577868 ], [ 78.9715613, 24.3589719 ], [ 78.9713593, 24.36018 ], [ 78.9708667, 24.3618943 ], [ 78.9697679, 24.365553 ], [ 78.9694395, 24.3675894 ], [ 78.9692627, 24.3698099 ], [ 78.9693763, 24.3703621 ], [ 78.9700331, 24.371294 ], [ 78.9707783, 24.3721914 ], [ 78.9718139, 24.3740436 ], [ 78.9727233, 24.3757002 ], [ 78.9735316, 24.3769657 ], [ 78.97434, 24.3786568 ], [ 78.9749083, 24.3808425 ], [ 78.9752999, 24.3833388 ], [ 78.9755272, 24.3855935 ], [ 78.9757798, 24.387457 ], [ 78.9761334, 24.3890099 ], [ 78.9766134, 24.3904248 ], [ 78.9768028, 24.3912185 ], [ 78.9770302, 24.3919547 ], [ 78.977687, 24.3927599 ], [ 78.9784574, 24.3936571 ], [ 78.9793162, 24.3951869 ], [ 78.9800362, 24.3972918 ], [ 78.9807506, 24.3994954 ], [ 78.9810229, 24.4001013 ], [ 78.9812641, 24.4004876 ], [ 78.9817463, 24.4007723 ], [ 78.9823402, 24.4011098 ], [ 78.9827645, 24.4015409 ], [ 78.9831976, 24.402281 ], [ 78.9837296, 24.4034923 ], [ 78.9839633, 24.4042457 ], [ 78.9839885, 24.4049818 ], [ 78.9839759, 24.4055339 ], [ 78.9837233, 24.406408 ], [ 78.9836159, 24.4070808 ], [ 78.9836096, 24.4079147 ], [ 78.9837422, 24.408576 ], [ 78.9836917, 24.4090648 ], [ 78.983578, 24.4095478 ], [ 78.9835717, 24.4100424 ], [ 78.9837928, 24.4105312 ], [ 78.9845, 24.4115318 ], [ 78.9849358, 24.4121068 ], [ 78.9853715, 24.4125841 ], [ 78.9857883, 24.4130844 ], [ 78.9864388, 24.4136824 ], [ 78.9872534, 24.4143092 ], [ 78.9882891, 24.415189 ], [ 78.989249, 24.4161091 ], [ 78.9906256, 24.4173741 ], [ 78.9914024, 24.4183517 ], [ 78.9919518, 24.419519 ], [ 78.992476, 24.4205137 ], [ 78.9928612, 24.422072 ], [ 78.9928864, 24.4223767 ], [ 78.9928485, 24.4227102 ], [ 78.9922423, 24.4232622 ], [ 78.9915982, 24.423728 ], [ 78.9909098, 24.4242455 ], [ 78.9906509, 24.4243892 ], [ 78.9904993, 24.4247515 ], [ 78.9902973, 24.4254415 ], [ 78.9891227, 24.4272067 ], [ 78.988769, 24.4279829 ], [ 78.9885606, 24.4288798 ], [ 78.9884091, 24.4298688 ], [ 78.9885164, 24.4307197 ], [ 78.9885038, 24.4313004 ], [ 78.9880617, 24.4321859 ], [ 78.9880554, 24.433031 ], [ 78.9876891, 24.4343419 ], [ 78.9872787, 24.4352963 ], [ 78.986603, 24.4372281 ], [ 78.9859651, 24.4386597 ], [ 78.985501, 24.4407462 ], [ 78.985429, 24.4414056 ], [ 78.9853936, 24.4417293 ], [ 78.9853621, 24.4424767 ], [ 78.9852926, 24.444851 ], [ 78.9852484, 24.4471793 ], [ 78.9852863, 24.4496456 ], [ 78.9854126, 24.4509793 ], [ 78.9856968, 24.4535374 ], [ 78.9860188, 24.4544055 ], [ 78.9865556, 24.4559633 ], [ 78.9870166, 24.4567336 ], [ 78.9876544, 24.4575211 ], [ 78.9880712, 24.4580212 ], [ 78.9886648, 24.4586708 ], [ 78.9893469, 24.4593664 ], [ 78.9899657, 24.4601711 ], [ 78.9907235, 24.4614127 ], [ 78.991153, 24.4620853 ], [ 78.9917529, 24.4633901 ], [ 78.9920371, 24.4642983 ], [ 78.9924097, 24.4652812 ], [ 78.9926749, 24.4661319 ], [ 78.9927002, 24.4669711 ], [ 78.9929907, 24.467431 ], [ 78.993458, 24.4685748 ], [ 78.9937106, 24.4691783 ], [ 78.9947336, 24.4691841 ], [ 78.9945252, 24.4686151 ], [ 78.9942852, 24.4676552 ], [ 78.99426, 24.4670746 ], [ 78.9939, 24.4664538 ], [ 78.9934769, 24.4651548 ], [ 78.9931738, 24.4640397 ], [ 78.9926686, 24.4628785 ], [ 78.9924602, 24.4624129 ], [ 78.9922455, 24.4620335 ], [ 78.991955, 24.4616484 ], [ 78.9910456, 24.4599699 ], [ 78.9908372, 24.4592514 ], [ 78.990572, 24.4585328 ], [ 78.9900099, 24.4574464 ], [ 78.9897889, 24.4570325 ], [ 78.9890501, 24.4565267 ], [ 78.9883491, 24.4558886 ], [ 78.9875344, 24.455468 ], [ 78.9872629, 24.4550943 ], [ 78.9867766, 24.4540653 ], [ 78.9865746, 24.4530248 ], [ 78.9865935, 24.4517889 ], [ 78.9864104, 24.4507081 ], [ 78.9863156, 24.4492192 ], [ 78.9861893, 24.4470174 ], [ 78.9862083, 24.4448443 ], [ 78.986303, 24.4435738 ], [ 78.9863283, 24.44224 ], [ 78.9863598, 24.4409867 ], [ 78.986644, 24.4396414 ], [ 78.987124, 24.4380316 ], [ 78.9874081, 24.4369277 ], [ 78.9878881, 24.4357778 ], [ 78.988368, 24.4349672 ], [ 78.9891322, 24.4337655 ], [ 78.9899973, 24.4325524 ], [ 78.9904078, 24.4321557 ], [ 78.9907299, 24.4318452 ], [ 78.9909004, 24.4316152 ], [ 78.9909319, 24.4312415 ], [ 78.9909256, 24.430448 ], [ 78.9910077, 24.4295051 ], [ 78.9913551, 24.4279757 ], [ 78.9914498, 24.4273489 ], [ 78.991835, 24.4261472 ], [ 78.9922707, 24.425808 ], [ 78.9928012, 24.4255148 ], [ 78.9930349, 24.425394 ], [ 78.9932875, 24.425026 ], [ 78.9934201, 24.4240945 ], [ 78.9935337, 24.4237783 ], [ 78.9938495, 24.423324 ], [ 78.9939063, 24.422542 ], [ 78.9937737, 24.4215703 ], [ 78.9933127, 24.4199603 ], [ 78.9929401, 24.419069 ], [ 78.9921444, 24.4177695 ], [ 78.991614, 24.4172634 ], [ 78.9896942, 24.4155614 ], [ 78.9891827, 24.4147448 ], [ 78.9886333, 24.4142675 ], [ 78.9880018, 24.4139513 ], [ 78.9873892, 24.413359 ], [ 78.9861578, 24.4123584 ], [ 78.9853052, 24.4114728 ], [ 78.9850526, 24.411007 ], [ 78.9848316, 24.410202 ], [ 78.9845537, 24.408609 ], [ 78.9846548, 24.4073899 ], [ 78.9848127, 24.4057969 ], [ 78.9847306, 24.4047101 ], [ 78.9845537, 24.4039452 ], [ 78.9836507, 24.4018576 ], [ 78.9833412, 24.40088 ], [ 78.9831139, 24.4001036 ], [ 78.9827287, 24.3993042 ], [ 78.9822551, 24.3989821 ], [ 78.9816741, 24.3976824 ], [ 78.9816299, 24.397021 ], [ 78.9816425, 24.3965436 ], [ 78.9812699, 24.3960318 ], [ 78.9807016, 24.3949851 ], [ 78.9802721, 24.3940361 ], [ 78.9797164, 24.3928226 ], [ 78.9791038, 24.3917988 ], [ 78.9784597, 24.3907176 ], [ 78.9779419, 24.389573 ], [ 78.9776261, 24.3889634 ], [ 78.9772409, 24.3884342 ], [ 78.9770262, 24.3874565 ], [ 78.9767041, 24.3861853 ], [ 78.9762368, 24.3832635 ], [ 78.9761421, 24.3822914 ], [ 78.9758642, 24.3810088 ], [ 78.9757063, 24.3798584 ], [ 78.9754158, 24.3787425 ], [ 78.9750875, 24.3780177 ], [ 78.9745949, 24.3767178 ], [ 78.9733445, 24.3741063 ], [ 78.9728204, 24.3730306 ], [ 78.9719741, 24.3715408 ], [ 78.9712921, 24.3704133 ], [ 78.9705533, 24.36947 ], [ 78.970427, 24.3688832 ], [ 78.9704585, 24.3670654 ], [ 78.970749, 24.3656906 ], [ 78.9708501, 24.3651095 ], [ 78.9716016, 24.3626532 ], [ 78.9716521, 24.3617557 ], [ 78.9717405, 24.3611172 ], [ 78.9720183, 24.3606224 ], [ 78.9723404, 24.3603693 ], [ 78.9731298, 24.36026 ], [ 78.9737981, 24.3596959 ], [ 78.9740633, 24.3590285 ], [ 78.9744675, 24.3581483 ], [ 78.9748337, 24.357412 ], [ 78.9751684, 24.356992 ], [ 78.9752568, 24.3559795 ], [ 78.9748842, 24.3545757 ], [ 78.9742212, 24.3531777 ], [ 78.9739307, 24.3521939 ], [ 78.9731287, 24.3505312 ], [ 78.9726171, 24.3493403 ], [ 78.9725729, 24.3486154 ], [ 78.9723709, 24.3478329 ], [ 78.972074, 24.347154 ], [ 78.971392, 24.3460148 ], [ 78.9706405, 24.3454395 ], [ 78.9703374, 24.3453935 ], [ 78.9696806, 24.3452611 ], [ 78.9693017, 24.345077 ], [ 78.9682471, 24.3448124 ], [ 78.9674577, 24.3446915 ], [ 78.9660305, 24.3445937 ], [ 78.9649443, 24.3442945 ], [ 78.9639592, 24.3434948 ], [ 78.9628288, 24.342603 ], [ 78.9619321, 24.3418895 ], [ 78.9610732, 24.3408654 ], [ 78.9603091, 24.3398987 ], [ 78.9591408, 24.3379022 ], [ 78.9585977, 24.3367341 ], [ 78.9584083, 24.336199 ], [ 78.9572715, 24.3349389 ], [ 78.9565264, 24.333978 ], [ 78.9553897, 24.3328847 ], [ 78.9545813, 24.3320734 ], [ 78.9538993, 24.3314865 ], [ 78.9535583, 24.3311758 ], [ 78.9525163, 24.3296279 ], [ 78.9517143, 24.3285346 ], [ 78.9507165, 24.3272571 ], [ 78.950426, 24.3268025 ], [ 78.9498577, 24.3262386 ], [ 78.9496745, 24.3256517 ], [ 78.9487525, 24.3249841 ], [ 78.9477358, 24.3240231 ], [ 78.9472811, 24.3234419 ], [ 78.9467128, 24.3229643 ], [ 78.9462139, 24.3218019 ], [ 78.9457529, 24.3204093 ], [ 78.9450898, 24.318867 ], [ 78.9448246, 24.3184297 ], [ 78.9444457, 24.3177736 ], [ 78.9440036, 24.3172557 ], [ 78.9434353, 24.3164961 ], [ 78.9426017, 24.3157364 ], [ 78.9415534, 24.3148732 ], [ 78.9402272, 24.3138603 ], [ 78.9403397, 24.3148396 ] ], [ [ 78.9684711, 24.3456713 ], [ 78.9682627, 24.3455907 ], [ 78.9680733, 24.345457 ], [ 78.9682059, 24.345434 ], [ 78.9682911, 24.3454483 ], [ 78.9684064, 24.3454656 ], [ 78.9685627, 24.3455001 ], [ 78.9687458, 24.3455476 ], [ 78.9688563, 24.3455922 ], [ 78.9689732, 24.3456785 ], [ 78.9689874, 24.3457648 ], [ 78.9689574, 24.3458396 ], [ 78.9685548, 24.3456972 ], [ 78.9684711, 24.3456713 ] ], [ [ 78.9693016, 24.3459662 ], [ 78.9691989, 24.3459388 ], [ 78.9691042, 24.3459403 ], [ 78.9690884, 24.3458827 ], [ 78.9690868, 24.3458151 ], [ 78.9691295, 24.3457619 ], [ 78.9691863, 24.3457288 ], [ 78.9692763, 24.3457547 ], [ 78.9694215, 24.345818 ], [ 78.9695447, 24.3458914 ], [ 78.9696252, 24.3459762 ], [ 78.9696363, 24.3460381 ], [ 78.96951, 24.3460625 ], [ 78.9694358, 24.3460151 ], [ 78.9693584, 24.345982 ], [ 78.9693016, 24.3459662 ] ], [ [ 78.9721136, 24.3483891 ], [ 78.9720757, 24.3481762 ], [ 78.971981, 24.3478511 ], [ 78.9721294, 24.3478022 ], [ 78.9722494, 24.347923 ], [ 78.9722936, 24.3480726 ], [ 78.9723189, 24.3483402 ], [ 78.972322, 24.3485243 ], [ 78.9722241, 24.3485904 ], [ 78.9721136, 24.3483891 ] ], [ [ 78.9727578, 24.3535814 ], [ 78.972562, 24.3526321 ], [ 78.9720947, 24.3517864 ], [ 78.9724231, 24.3514527 ], [ 78.9728462, 24.3520108 ], [ 78.9730293, 24.3524883 ], [ 78.9732945, 24.3529255 ], [ 78.9736419, 24.3534433 ], [ 78.9740587, 24.3543523 ], [ 78.9742986, 24.3549621 ], [ 78.9744628, 24.3554109 ], [ 78.9744881, 24.3559114 ], [ 78.9742039, 24.35655 ], [ 78.9740397, 24.3569009 ], [ 78.9737745, 24.3572173 ], [ 78.9734966, 24.3574647 ], [ 78.9729851, 24.3575395 ], [ 78.9725873, 24.3574877 ], [ 78.9725241, 24.3574072 ], [ 78.9725999, 24.3568088 ], [ 78.9728083, 24.356176 ], [ 78.9729409, 24.3554166 ], [ 78.9729283, 24.3547205 ], [ 78.9727578, 24.3535814 ] ], [ [ 78.9723599, 24.3588511 ], [ 78.9725999, 24.3585635 ], [ 78.973263, 24.3579767 ], [ 78.973604, 24.3579019 ], [ 78.973844, 24.3578559 ], [ 78.9740397, 24.3579192 ], [ 78.9738376, 24.3583391 ], [ 78.9735345, 24.3588224 ], [ 78.9734272, 24.3591158 ], [ 78.9732061, 24.3594955 ], [ 78.9730104, 24.3597256 ], [ 78.9728209, 24.3598176 ], [ 78.9725304, 24.3598291 ], [ 78.9722399, 24.3598119 ], [ 78.972, 24.3597716 ], [ 78.971981, 24.3595415 ], [ 78.9720505, 24.3592999 ], [ 78.9722147, 24.3590467 ], [ 78.9723599, 24.3588511 ] ], [ [ 78.9771152, 24.3908792 ], [ 78.9770457, 24.3903903 ], [ 78.9767994, 24.3897979 ], [ 78.976951, 24.3896771 ], [ 78.9771278, 24.3897692 ], [ 78.977273, 24.3901833 ], [ 78.977412, 24.3905456 ], [ 78.9778161, 24.39123 ], [ 78.9782392, 24.3917534 ], [ 78.9786118, 24.392271 ], [ 78.9789718, 24.39298